post_id,title,description,category,price,dong,latitude,longitude,created_at,view_count,like_count,chat_count
1,전자레인지 거의 새상품입니다,전자레인지 판매합니다. 청룡동 근처 직거래 가능하고 사용감은 적은 편입니다.,생활가전,37000,청룡동,37.48210492512449,126.94801782679481,2026-05-13 13:49:03,768,69,5
2,공기청정기 급처합니다,공기청정기 상태 양호합니다. 신림동 근처에서 시간 맞춰 거래 가능합니다.,생활가전,141000,신림동,37.48369209046284,126.92678190708232,2026-05-13 20:48:03,568,53,14
3,와이파이 공유기 상태 좋아요,상도동 인근에서 거래 원합니다. 와이파이 공유기 필요하신 분 연락 주세요.,디지털기기,45000,상도동,37.49839927300638,126.92958979380484,2026-06-01 10:44:03,354,13,5
4,헬스 장갑 거의 새상품입니다,집 정리하면서 헬스 장갑 내놓습니다. 신림동에서 직거래 가능합니다.,스포츠/레저,22000,신림동,37.48538519752364,126.93261706900311,2026-06-02 05:27:03,575,37,40
5,레고 세트 저렴하게 내놓습니다,레고 세트 판매합니다. 신림동 근처 직거래 가능하고 사용감은 적은 편입니다.,게임/취미,168000,신림동,37.483734103023686,126.93234110426641,2026-06-03 09:37:03,113,48,17
6,러그 사용감 적어요,청룡동 인근에서 거래 원합니다. 러그 필요하신 분 연락 주세요.,가구/인테리어,99000,청룡동,37.477911386481985,126.9549912679795,2026-05-06 19:51:03,83,77,40
7,옷장 필요하신 분 가져가세요,옷장 상태 양호합니다. 대학동 근처에서 시간 맞춰 거래 가능합니다.,가구/인테리어,106000,대학동,37.46789048071964,126.93212100243905,2026-05-15 06:39:03,796,99,3
8,낚시대 거의 새상품입니다,낚시대 판매합니다. 봉천동 근처 직거래 가능하고 사용감은 적은 편입니다.,스포츠/레저,165000,봉천동,37.48155631901061,126.9457454758974,2026-05-07 19:12:03,227,83,31
9,고양이 화장실 거의 새상품입니다,고양이 화장실 판매합니다. 낙성대동 근처 직거래 가능하고 사용감은 적은 편입니다.,반려동물용품,78000,낙성대동,37.47541996443714,126.9635732577799,2026-05-27 17:55:03,448,74,25
10,화장대 이사 정리합니다,봉천동에서 거래 가능한 화장대입니다. 상태 좋고 빠른 거래 원합니다.,가구/인테리어,250000,봉천동,37.48356409030732,126.94044767311674,2026-06-02 12:52:03,173,87,27
11,디지털 피아노 거의 새상품입니다,신림동에서 거래 가능한 디지털 피아노입니다. 상태 좋고 빠른 거래 원합니다.,게임/취미,649000,신림동,37.48213500128647,126.92558157754345,2026-05-12 08:43:03,666,43,7
12,보조배터리 거의 새상품입니다,보조배터리 상태 양호합니다. 낙성대동 근처에서 시간 맞춰 거래 가능합니다.,디지털기기,11000,낙성대동,37.47788970211438,126.9551283926855,2026-05-08 21:13:03,871,81,32
13,전신거울 판매합니다,집 정리하면서 전신거울 내놓습니다. 사당동에서 직거래 가능합니다.,가구/인테리어,12000,사당동,37.47217925166494,126.98538009599204,2026-06-02 05:36:03,861,39,15
14,전기포트 이사 정리합니다,전기포트 상태 양호합니다. 봉천동 근처에서 시간 맞춰 거래 가능합니다.,생활가전,13000,봉천동,37.4802505662894,126.94532433041084,2026-05-31 20:02:03,979,70,10
15,아기 식탁의자 급처합니다,집 정리하면서 아기 식탁의자 내놓습니다. 대학동에서 직거래 가능합니다.,유아용품,115000,대학동,37.46624025896326,126.93201034260008,2026-05-22 01:04:03,133,31,14
16,화장품 정리함 급처합니다,신림동에서 거래 가능한 화장품 정리함입니다. 상태 좋고 빠른 거래 원합니다.,생활용품,50000,신림동,37.47990857349889,126.9263800463437,2026-05-16 16:18:03,79,4,21
17,자동 급식기 상태 좋아요,자동 급식기 판매합니다. 흑석동 근처 직거래 가능하고 사용감은 적은 편입니다.,반려동물용품,141000,흑석동,37.508110511824064,126.9628357862302,2026-05-11 04:20:03,106,12,42
18,배변패드 판매합니다,봉천동에서 거래 가능한 배변패드입니다. 상태 좋고 빠른 거래 원합니다.,반려동물용품,17000,봉천동,37.47951590072142,126.9419628575391,2026-05-13 06:41:03,892,13,15
19,행거 상태 좋아요,집 정리하면서 행거 내놓습니다. 대학동에서 직거래 가능합니다.,가구/인테리어,25000,대학동,37.46610588329525,126.94179282468413,2026-05-09 15:04:03,837,70,6
20,아이폰 SE 급처합니다,집 정리하면서 아이폰 SE 내놓습니다. 낙성대동에서 직거래 가능합니다.,디지털기기,244000,낙성대동,37.475589731189764,126.9634530884378,2026-05-21 10:37:03,420,7,10
21,머신러닝 입문서 이사 정리합니다,집 정리하면서 머신러닝 입문서 내놓습니다. 대학동에서 직거래 가능합니다.,도서,32000,대학동,37.47046671411654,126.93369897867268,2026-05-05 17:42:03,579,84,45
22,울 코트 판매합니다,사당동에서 거래 가능한 울 코트입니다. 상태 좋고 빠른 거래 원합니다.,의류,42000,사당동,37.47216879579729,126.98167828496993,2026-05-18 02:00:03,951,67,10
23,게이밍 의자 저렴하게 내놓습니다,집 정리하면서 게이밍 의자 내놓습니다. 청룡동에서 직거래 가능합니다.,가구/인테리어,70000,청룡동,37.48239381510332,126.95189224915335,2026-05-05 23:17:03,602,76,2
24,만화책 세트 사용감 적어요,만화책 세트 판매합니다. 대학동 근처 직거래 가능하고 사용감은 적은 편입니다.,게임/취미,95000,대학동,37.4723169022296,126.934799970798,2026-05-14 07:17:03,281,50,8
25,아령 판매합니다,아령 상태 양호합니다. 흑석동 근처에서 시간 맞춰 거래 가능합니다.,스포츠/레저,41000,흑석동,37.50512456570367,126.96209008834964,2026-06-02 14:58:03,228,64,16
26,가습기 사용감 적어요,가습기 판매합니다. 대학동 근처 직거래 가능하고 사용감은 적은 편입니다.,생활가전,66000,대학동,37.47088940692602,126.93847863203713,2026-05-09 23:47:03,319,78,41
27,도시락통 저렴하게 내놓습니다,낙성대동 인근에서 거래 원합니다. 도시락통 필요하신 분 연락 주세요.,생활용품,6000,낙성대동,37.47461756271458,126.95570629654807,2026-05-08 13:45:03,576,19,17
28,러닝화 거의 새상품입니다,흑석동 인근에서 거래 원합니다. 러닝화 필요하신 분 연락 주세요.,스포츠/레저,33000,흑석동,37.503835456890876,126.9663111922302,2026-06-02 21:05:03,859,35,2
29,베스트셀러 소설 이사 정리합니다,베스트셀러 소설 상태 양호합니다. 상도동 근처에서 시간 맞춰 거래 가능합니다.,도서,5000,상도동,37.49496028138061,126.92969215984512,2026-06-02 14:36:03,717,19,34
30,빨래 건조대 필요하신 분 가져가세요,낙성대동에서 거래 가능한 빨래 건조대입니다. 상태 좋고 빠른 거래 원합니다.,생활용품,24000,낙성대동,37.474295297392224,126.95462793621672,2026-05-25 15:35:03,376,26,43
31,디퓨저 상태 좋아요,디퓨저 판매합니다. 청룡동 근처 직거래 가능하고 사용감은 적은 편입니다.,생활용품,16000,청룡동,37.48402386496148,126.9518171316655,2026-05-08 04:31:03,193,94,21
32,슬랙스 상태 좋아요,집 정리하면서 슬랙스 내놓습니다. 봉천동에서 직거래 가능합니다.,의류,12000,봉천동,37.48065190867339,126.94455345499152,2026-05-09 02:18:03,214,58,22
33,청바지 판매합니다,집 정리하면서 청바지 내놓습니다. 청룡동에서 직거래 가능합니다.,의류,31000,청룡동,37.48129405675528,126.95449518118359,2026-05-28 14:43:03,295,44,41
34,장우산 판매합니다,봉천동 인근에서 거래 원합니다. 장우산 필요하신 분 연락 주세요.,생활용품,8000,봉천동,37.4810568711168,126.94446428178203,2026-05-18 09:30:03,121,76,27
35,아기 신발 저렴하게 내놓습니다,아기 신발 상태 양호합니다. 상도동 근처에서 시간 맞춰 거래 가능합니다.,유아용품,17000,상도동,37.50385575165499,126.93138451997092,2026-05-28 15:47:03,456,0,33
36,가디건 필요하신 분 가져가세요,봉천동 인근에서 거래 원합니다. 가디건 필요하신 분 연락 주세요.,의류,49000,봉천동,37.48267122504035,126.94326892904105,2026-05-25 19:38:03,137,92,19
37,낚시대 거의 새상품입니다,낚시대 판매합니다. 낙성대동 근처 직거래 가능하고 사용감은 적은 편입니다.,스포츠/레저,127000,낙성대동,37.47749105254866,126.95766075168758,2026-05-15 04:49:03,776,22,39
38,갤럭시워치 거의 새상품입니다,집 정리하면서 갤럭시워치 내놓습니다. 청룡동에서 직거래 가능합니다.,디지털기기,281000,청룡동,37.48062159799305,126.94983701400989,2026-05-17 21:51:03,339,59,28
39,물그릇 상태 좋아요,봉천동 인근에서 거래 원합니다. 물그릇 필요하신 분 연락 주세요.,반려동물용품,19000,봉천동,37.47994868598526,126.93970419464294,2026-05-14 20:53:03,353,11,48
40,맨투맨 판매합니다,맨투맨 판매합니다. 신림동 근처 직거래 가능하고 사용감은 적은 편입니다.,의류,40000,신림동,37.4811443523674,126.93096354250491,2026-05-17 15:03:03,434,80,36
41,고양이 장난감 급처합니다,낙성대동에서 거래 가능한 고양이 장난감입니다. 상태 좋고 빠른 거래 원합니다.,반려동물용품,27000,낙성대동,37.47984109856173,126.96055911776409,2026-05-09 13:43:03,445,28,11
42,강아지 하우스 급처합니다,집 정리하면서 강아지 하우스 내놓습니다. 봉천동에서 직거래 가능합니다.,반려동물용품,27000,봉천동,37.48077297957465,126.94415250013556,2026-05-11 02:50:03,553,71,38
43,목줄 필요하신 분 가져가세요,목줄 판매합니다. 흑석동 근처 직거래 가능하고 사용감은 적은 편입니다.,반려동물용품,26000,흑석동,37.51219862887842,126.96137311353131,2026-05-09 02:04:03,275,96,15
44,담요 급처합니다,집 정리하면서 담요 내놓습니다. 대학동에서 직거래 가능합니다.,생활용품,9000,대학동,37.474530268327904,126.93260577657658,2026-05-14 08:17:03,288,42,20
45,3인용 소파 필요하신 분 가져가세요,3인용 소파 판매합니다. 낙성대동 근처 직거래 가능하고 사용감은 적은 편입니다.,가구/인테리어,112000,낙성대동,37.47242265710583,126.9619289116934,2026-05-23 04:11:03,565,59,26
46,아기띠 판매합니다,집 정리하면서 아기띠 내놓습니다. 상도동에서 직거래 가능합니다.,유아용품,21000,상도동,37.499982205676105,126.93334634060756,2026-05-06 06:13:03,781,49,26
47,피규어 이사 정리합니다,청룡동 인근에서 거래 원합니다. 피규어 필요하신 분 연락 주세요.,게임/취미,121000,청룡동,37.4841814232442,126.95494181377627,2026-05-21 17:08:03,354,85,43
48,스크래쳐 상태 좋아요,집 정리하면서 스크래쳐 내놓습니다. 신림동에서 직거래 가능합니다.,반려동물용품,42000,신림동,37.48055699487231,126.92861698444052,2026-05-17 20:31:03,95,82,27
49,애플워치 필요하신 분 가져가세요,애플워치 판매합니다. 사당동 근처 직거래 가능하고 사용감은 적은 편입니다.,디지털기기,352000,사당동,37.47912009823555,126.98491924285155,2026-05-26 06:44:03,910,48,17
50,코딩 테스트 책 저렴하게 내놓습니다,흑석동에서 거래 가능한 코딩 테스트 책입니다. 상태 좋고 빠른 거래 원합니다.,도서,33000,흑석동,37.511612330496106,126.96511754655243,2026-05-19 16:10:03,239,83,4
51,갤럭시탭 급처합니다,갤럭시탭 상태 양호합니다. 신림동 근처에서 시간 맞춰 거래 가능합니다.,디지털기기,228000,신림동,37.488677570222166,126.92865033983435,2026-05-29 13:02:03,695,14,36
52,한국사 교재 사용감 적어요,한국사 교재 상태 양호합니다. 낙성대동 근처에서 시간 맞춰 거래 가능합니다.,도서,24000,낙성대동,37.48144720773034,126.95468098749657,2026-05-05 17:47:03,127,99,10
53,갤럭시워치 필요하신 분 가져가세요,갤럭시워치 판매합니다. 상도동 근처 직거래 가능하고 사용감은 적은 편입니다.,디지털기기,99000,상도동,37.50157193002496,126.92901582685488,2026-05-17 18:39:03,652,31,6
54,Xbox 컨트롤러 판매합니다,Xbox 컨트롤러 상태 양호합니다. 사당동 근처에서 시간 맞춰 거래 가능합니다.,게임/취미,84000,사당동,37.47172652150166,126.98080058740842,2026-05-15 06:28:03,528,82,21
55,고양이 캣타워 필요하신 분 가져가세요,집 정리하면서 고양이 캣타워 내놓습니다. 사당동에서 직거래 가능합니다.,반려동물용품,211000,사당동,37.47430082396387,126.98468199218807,2026-06-01 04:21:03,761,66,41
56,담요 이사 정리합니다,담요 상태 양호합니다. 상도동 근처에서 시간 맞춰 거래 가능합니다.,생활용품,22000,상도동,37.50341631184003,126.92843863439191,2026-05-26 09:39:03,967,11,17
57,목줄 필요하신 분 가져가세요,사당동에서 거래 가능한 목줄입니다. 상태 좋고 빠른 거래 원합니다.,반려동물용품,18000,사당동,37.479578323568276,126.98000338843164,2026-05-09 07:21:03,509,27,22
58,프라모델 판매합니다,청룡동에서 거래 가능한 프라모델입니다. 상태 좋고 빠른 거래 원합니다.,게임/취미,71000,청룡동,37.48310609339447,126.95415902899741,2026-05-13 04:01:03,578,97,15
59,강아지 장난감 판매합니다,봉천동 인근에서 거래 원합니다. 강아지 장난감 필요하신 분 연락 주세요.,반려동물용품,10000,봉천동,37.48129020450661,126.94213472955009,2026-05-23 19:17:03,323,84,37
60,자전거 헬멧 사용감 적어요,집 정리하면서 자전거 헬멧 내놓습니다. 사당동에서 직거래 가능합니다.,스포츠/레저,44000,사당동,37.474755479440056,126.98402881063639,2026-05-27 09:18:03,133,92,12
61,싱글 매트리스 급처합니다,흑석동 인근에서 거래 원합니다. 싱글 매트리스 필요하신 분 연락 주세요.,가구/인테리어,180000,흑석동,37.50676246463265,126.9622088106915,2026-05-12 00:54:03,299,12,12
62,파이썬 입문서 상태 좋아요,대학동에서 거래 가능한 파이썬 입문서입니다. 상태 좋고 빠른 거래 원합니다.,도서,9000,대학동,37.47428461197263,126.93670878694525,2026-05-19 07:48:03,976,16,40
63,맥북 에어 거의 새상품입니다,집 정리하면서 맥북 에어 내놓습니다. 흑석동에서 직거래 가능합니다.,디지털기기,951000,흑석동,37.512021156452995,126.96260707442252,2026-05-26 12:29:03,268,61,7
64,인덕션 판매합니다,인덕션 판매합니다. 낙성대동 근처 직거래 가능하고 사용감은 적은 편입니다.,생활가전,174000,낙성대동,37.47944443445326,126.95966317651244,2026-05-06 08:27:03,264,15,35
65,피규어 필요하신 분 가져가세요,집 정리하면서 피규어 내놓습니다. 흑석동에서 직거래 가능합니다.,게임/취미,86000,흑석동,37.504402303043726,126.96820108777435,2026-05-08 23:05:03,322,72,39
66,공기청정기 급처합니다,대학동에서 거래 가능한 공기청정기입니다. 상태 좋고 빠른 거래 원합니다.,생활가전,120000,대학동,37.469685175726596,126.93869371135786,2026-05-29 11:57:03,86,20,0
67,반려동물 이동장 판매합니다,청룡동 인근에서 거래 원합니다. 반려동물 이동장 필요하신 분 연락 주세요.,반려동물용품,100000,청룡동,37.4785342380616,126.95034554625659,2026-05-26 18:37:03,474,9,43
68,레고 세트 필요하신 분 가져가세요,레고 세트 상태 양호합니다. 봉천동 근처에서 시간 맞춰 거래 가능합니다.,게임/취미,135000,봉천동,37.47819638039514,126.94452628566232,2026-05-16 12:34:03,282,18,4
69,만화책 세트 거의 새상품입니다,흑석동에서 거래 가능한 만화책 세트입니다. 상태 좋고 빠른 거래 원합니다.,게임/취미,69000,흑석동,37.50919981562598,126.96297758863571,2026-05-14 07:48:03,422,34,32
70,플스5 게임 타이틀 필요하신 분 가져가세요,플스5 게임 타이틀 상태 양호합니다. 사당동 근처에서 시간 맞춰 거래 가능합니다.,게임/취미,36000,사당동,37.477471229317096,126.97680745456215,2026-06-05 15:18:03,994,86,36
71,에세이 판매합니다,집 정리하면서 에세이 내놓습니다. 낙성대동에서 직거래 가능합니다.,도서,19000,낙성대동,37.4799424494454,126.96329055236066,2026-05-07 09:21:03,609,55,40
72,강아지 옷 필요하신 분 가져가세요,사당동 인근에서 거래 원합니다. 강아지 옷 필요하신 분 연락 주세요.,반려동물용품,11000,사당동,37.47448217795361,126.98605193539564,2026-05-09 12:11:03,431,88,31
73,냄비 세트 이사 정리합니다,봉천동 인근에서 거래 원합니다. 냄비 세트 필요하신 분 연락 주세요.,생활용품,74000,봉천동,37.48417660386483,126.94202593594356,2026-05-26 13:43:03,423,65,0
74,유모차 급처합니다,유모차 상태 양호합니다. 사당동 근처에서 시간 맞춰 거래 가능합니다.,유아용품,437000,사당동,37.47427056238273,126.97791013228951,2026-05-20 21:04:03,788,6,13
75,자기계발서 이사 정리합니다,봉천동에서 거래 가능한 자기계발서입니다. 상태 좋고 빠른 거래 원합니다.,도서,25000,봉천동,37.47773674464466,126.94067990687289,2026-05-17 09:47:03,172,39,35
76,나이키 후드티 이사 정리합니다,나이키 후드티 판매합니다. 봉천동 근처 직거래 가능하고 사용감은 적은 편입니다.,의류,78000,봉천동,37.481754903429355,126.94142499576957,2026-05-06 19:14:03,531,90,17
77,자동 급식기 이사 정리합니다,집 정리하면서 자동 급식기 내놓습니다. 낙성대동에서 직거래 가능합니다.,반려동물용품,68000,낙성대동,37.47456247402822,126.96150006182003,2026-05-06 22:00:03,774,17,4
78,젖병 소독기 거의 새상품입니다,신림동 인근에서 거래 원합니다. 젖병 소독기 필요하신 분 연락 주세요.,유아용품,96000,신림동,37.48366547393044,126.92884341385552,2026-05-09 22:55:03,685,62,9
79,농구공 필요하신 분 가져가세요,흑석동 인근에서 거래 원합니다. 농구공 필요하신 분 연락 주세요.,스포츠/레저,17000,흑석동,37.507907750955496,126.96178176327234,2026-05-14 09:56:03,402,29,49
80,사료 보관통 필요하신 분 가져가세요,사료 보관통 판매합니다. 상도동 근처 직거래 가능하고 사용감은 적은 편입니다.,반려동물용품,36000,상도동,37.503297003133625,126.93474190374054,2026-05-06 16:24:03,524,75,21
81,고양이 캣타워 이사 정리합니다,고양이 캣타워 판매합니다. 신림동 근처 직거래 가능하고 사용감은 적은 편입니다.,반려동물용품,134000,신림동,37.48889203630574,126.92738561234052,2026-05-08 21:23:03,86,60,50
82,기저귀 정리함 저렴하게 내놓습니다,기저귀 정리함 상태 양호합니다. 사당동 근처에서 시간 맞춰 거래 가능합니다.,유아용품,29000,사당동,37.48032383017398,126.97695899099838,2026-05-06 06:52:03,745,97,31
83,가습기 거의 새상품입니다,청룡동에서 거래 가능한 가습기입니다. 상태 좋고 빠른 거래 원합니다.,생활가전,65000,청룡동,37.477863647867295,126.95069466080244,2026-06-01 20:47:03,903,12,28
84,아이폰 14 사용감 적어요,신림동 인근에서 거래 원합니다. 아이폰 14 필요하신 분 연락 주세요.,디지털기기,583000,신림동,37.48485928061916,126.93192519473881,2026-05-25 04:23:03,260,67,26
85,침대 프레임 저렴하게 내놓습니다,침대 프레임 상태 양호합니다. 상도동 근처에서 시간 맞춰 거래 가능합니다.,가구/인테리어,224000,상도동,37.49921149913355,126.92853977339414,2026-05-29 01:34:03,607,18,14
86,인문교양서 판매합니다,흑석동 인근에서 거래 원합니다. 인문교양서 필요하신 분 연락 주세요.,도서,22000,흑석동,37.506791542491236,126.96822029072824,2026-05-31 15:04:03,977,44,37
87,자기계발서 거의 새상품입니다,집 정리하면서 자기계발서 내놓습니다. 청룡동에서 직거래 가능합니다.,도서,20000,청룡동,37.47915872390216,126.9546927907955,2026-06-02 10:08:03,595,45,36
88,USB 허브 필요하신 분 가져가세요,대학동에서 거래 가능한 USB 허브입니다. 상태 좋고 빠른 거래 원합니다.,디지털기기,8000,대학동,37.473588601195075,126.93787064998165,2026-05-06 21:45:03,518,36,49
89,등산화 급처합니다,등산화 판매합니다. 대학동 근처 직거래 가능하고 사용감은 적은 편입니다.,스포츠/레저,180000,대학동,37.47000823190162,126.93759573805369,2026-06-01 20:51:03,50,39,50
90,게이밍 의자 거의 새상품입니다,집 정리하면서 게이밍 의자 내놓습니다. 사당동에서 직거래 가능합니다.,가구/인테리어,84000,사당동,37.47661794762264,126.97932527350713,2026-05-30 12:42:03,562,46,33
91,좌식 테이블 이사 정리합니다,대학동 인근에서 거래 원합니다. 좌식 테이블 필요하신 분 연락 주세요.,가구/인테리어,24000,대학동,37.47284216712075,126.94159942242783,2026-05-22 15:23:03,782,28,43
92,공구 세트 저렴하게 내놓습니다,상도동에서 거래 가능한 공구 세트입니다. 상태 좋고 빠른 거래 원합니다.,생활용품,43000,상도동,37.50132340797351,126.93184560091652,2026-05-19 14:03:03,387,86,47
93,푸쉬업바 급처합니다,흑석동에서 거래 가능한 푸쉬업바입니다. 상태 좋고 빠른 거래 원합니다.,스포츠/레저,24000,흑석동,37.5102765238064,126.96495403922378,2026-05-08 00:12:03,947,78,14
94,스크래쳐 거의 새상품입니다,상도동에서 거래 가능한 스크래쳐입니다. 상태 좋고 빠른 거래 원합니다.,반려동물용품,13000,상도동,37.496948000324316,126.93137546605882,2026-06-04 16:13:03,514,14,6
95,블록 장난감 사용감 적어요,블록 장난감 상태 양호합니다. 상도동 근처에서 시간 맞춰 거래 가능합니다.,유아용품,24000,상도동,37.498681158856975,126.9355152152538,2026-05-08 03:51:03,111,62,39
96,블루투스 스피커 사용감 적어요,집 정리하면서 블루투스 스피커 내놓습니다. 청룡동에서 직거래 가능합니다.,디지털기기,66000,청룡동,37.47987334958497,126.95671696212423,2026-05-06 09:38:03,381,12,43
97,덤벨 세트 필요하신 분 가져가세요,덤벨 세트 판매합니다. 대학동 근처 직거래 가능하고 사용감은 적은 편입니다.,스포츠/레저,25000,대학동,37.47199492918529,126.94151093312065,2026-05-06 03:27:03,688,27,41
98,에어팟 프로 급처합니다,에어팟 프로 상태 양호합니다. 낙성대동 근처에서 시간 맞춰 거래 가능합니다.,디지털기기,142000,낙성대동,37.47508559553432,126.95507554179942,2026-06-03 00:19:03,610,27,14
99,닌텐도 스위치 거의 새상품입니다,닌텐도 스위치 판매합니다. 낙성대동 근처 직거래 가능하고 사용감은 적은 편입니다.,게임/취미,318000,낙성대동,37.4719486032723,126.96149984664235,2026-05-28 12:25:03,686,3,8
100,백팩 사용감 적어요,백팩 판매합니다. 신림동 근처 직거래 가능하고 사용감은 적은 편입니다.,의류,43000,신림동,37.48665665275034,126.92876245965424,2026-06-04 12:45:03,441,67,7
101,축구공 저렴하게 내놓습니다,축구공 상태 양호합니다. 흑석동 근처에서 시간 맞춰 거래 가능합니다.,스포츠/레저,19000,흑석동,37.50901451214713,126.96318042522098,2026-05-05 22:30:03,754,100,42
102,아이폰 14 이사 정리합니다,집 정리하면서 아이폰 14 내놓습니다. 상도동에서 직거래 가능합니다.,디지털기기,751000,상도동,37.50359266765123,126.92922111819746,2026-06-02 01:47:03,941,56,4
103,게이밍 의자 상태 좋아요,게이밍 의자 상태 양호합니다. 대학동 근처에서 시간 맞춰 거래 가능합니다.,가구/인테리어,202000,대학동,37.47090556837431,126.93633715417576,2026-05-17 23:47:03,342,48,38
104,우쿨렐레 저렴하게 내놓습니다,우쿨렐레 상태 양호합니다. 봉천동 근처에서 시간 맞춰 거래 가능합니다.,게임/취미,112000,봉천동,37.48098931618835,126.94113498902907,2026-05-09 11:05:03,472,29,26
105,아기 욕조 저렴하게 내놓습니다,집 정리하면서 아기 욕조 내놓습니다. 사당동에서 직거래 가능합니다.,유아용품,25000,사당동,37.48082985035734,126.97727133308136,2026-05-15 09:09:03,986,19,43
106,전기포트 필요하신 분 가져가세요,봉천동 인근에서 거래 원합니다. 전기포트 필요하신 분 연락 주세요.,생활가전,13000,봉천동,37.48089645981416,126.93782231285354,2026-05-19 15:55:03,989,71,35
107,자전거 헬멧 판매합니다,자전거 헬멧 상태 양호합니다. 대학동 근처에서 시간 맞춰 거래 가능합니다.,스포츠/레저,49000,대학동,37.47216736302988,126.93404244869109,2026-05-25 13:56:03,529,27,9
108,로봇청소기 사용감 적어요,봉천동 인근에서 거래 원합니다. 로봇청소기 필요하신 분 연락 주세요.,생활가전,373000,봉천동,37.48373573280535,126.94302699163829,2026-05-29 03:38:03,584,98,39
109,삼성 노트북 거의 새상품입니다,삼성 노트북 판매합니다. 신림동 근처 직거래 가능하고 사용감은 적은 편입니다.,디지털기기,529000,신림동,37.48101405558213,126.92543251490342,2026-05-14 07:34:03,357,44,0
110,카시트 상태 좋아요,신림동에서 거래 가능한 카시트입니다. 상태 좋고 빠른 거래 원합니다.,유아용품,301000,신림동,37.48290053092477,126.93121595967743,2026-05-30 05:06:03,474,43,10
111,플스4 게임 타이틀 판매합니다,플스4 게임 타이틀 판매합니다. 낙성대동 근처 직거래 가능하고 사용감은 적은 편입니다.,게임/취미,49000,낙성대동,37.476040147731126,126.95967076007442,2026-06-03 20:27:03,288,56,42
112,분유포트 급처합니다,봉천동 인근에서 거래 원합니다. 분유포트 필요하신 분 연락 주세요.,유아용품,65000,봉천동,37.48286934107148,126.93968419391851,2026-06-02 07:49:03,704,75,31
113,바람막이 판매합니다,바람막이 판매합니다. 신림동 근처 직거래 가능하고 사용감은 적은 편입니다.,의류,53000,신림동,37.48209447131217,126.92519984343706,2026-05-06 10:43:03,150,97,16
114,사료 보관통 필요하신 분 가져가세요,사료 보관통 판매합니다. 낙성대동 근처 직거래 가능하고 사용감은 적은 편입니다.,반려동물용품,29000,낙성대동,37.47986200186566,126.95432075496592,2026-05-18 19:18:03,522,71,42
115,무선 마우스 판매합니다,흑석동에서 거래 가능한 무선 마우스입니다. 상태 좋고 빠른 거래 원합니다.,디지털기기,25000,흑석동,37.507976939598436,126.95975173372663,2026-05-18 03:56:03,424,90,40
116,에어팟 프로 상태 좋아요,흑석동 인근에서 거래 원합니다. 에어팟 프로 필요하신 분 연락 주세요.,디지털기기,112000,흑석동,37.509039625430006,126.96255766696859,2026-05-23 14:17:03,456,75,25
117,영어 회화책 사용감 적어요,청룡동 인근에서 거래 원합니다. 영어 회화책 필요하신 분 연락 주세요.,도서,10000,청룡동,37.47813903706267,126.95546228229324,2026-06-03 00:52:03,126,67,32
118,폼롤러 급처합니다,폼롤러 판매합니다. 봉천동 근처 직거래 가능하고 사용감은 적은 편입니다.,스포츠/레저,13000,봉천동,37.48415509010518,126.93837146128946,2026-05-30 11:54:03,166,97,48
119,강아지 장난감 이사 정리합니다,사당동 인근에서 거래 원합니다. 강아지 장난감 필요하신 분 연락 주세요.,반려동물용품,7000,사당동,37.47956329679151,126.9825141975683,2026-05-22 15:02:03,462,80,19
120,축구공 저렴하게 내놓습니다,집 정리하면서 축구공 내놓습니다. 대학동에서 직거래 가능합니다.,스포츠/레저,33000,대학동,37.47204666469575,126.94157368532534,2026-06-04 16:09:03,861,36,4
121,스팀다리미 필요하신 분 가져가세요,스팀다리미 상태 양호합니다. 흑석동 근처에서 시간 맞춰 거래 가능합니다.,생활가전,80000,흑석동,37.510318374546486,126.96181526762881,2026-05-05 17:35:03,52,57,36
122,반려동물 방석 상태 좋아요,집 정리하면서 반려동물 방석 내놓습니다. 신림동에서 직거래 가능합니다.,반려동물용품,18000,신림동,37.480925589114364,126.92647743723599,2026-05-11 06:47:03,96,64,41
123,강아지 장난감 상태 좋아요,사당동 인근에서 거래 원합니다. 강아지 장난감 필요하신 분 연락 주세요.,반려동물용품,12000,사당동,37.47212365517536,126.98290886574442,2026-05-24 03:43:03,356,86,38
124,아령 사용감 적어요,아령 상태 양호합니다. 봉천동 근처에서 시간 맞춰 거래 가능합니다.,스포츠/레저,48000,봉천동,37.4863327966206,126.9399336203606,2026-05-24 08:16:03,751,84,38
125,게임 패드 사용감 적어요,집 정리하면서 게임 패드 내놓습니다. 대학동에서 직거래 가능합니다.,게임/취미,18000,대학동,37.47203493263361,126.93508476554254,2026-05-16 19:27:03,327,71,24
126,화장대 저렴하게 내놓습니다,화장대 상태 양호합니다. 상도동 근처에서 시간 맞춰 거래 가능합니다.,가구/인테리어,122000,상도동,37.50407668267535,126.93086270920872,2026-06-05 06:13:03,194,27,21
127,맨투맨 상태 좋아요,봉천동 인근에서 거래 원합니다. 맨투맨 필요하신 분 연락 주세요.,의류,60000,봉천동,37.47797747492358,126.93996764371964,2026-06-02 00:43:03,562,94,33
128,게임 패드 필요하신 분 가져가세요,게임 패드 판매합니다. 낙성대동 근처 직거래 가능하고 사용감은 적은 편입니다.,게임/취미,21000,낙성대동,37.47617673405138,126.95770858611498,2026-05-09 18:43:03,649,21,46
129,트레이닝 팬츠 거의 새상품입니다,트레이닝 팬츠 판매합니다. 흑석동 근처 직거래 가능하고 사용감은 적은 편입니다.,의류,42000,흑석동,37.50747840958225,126.96807130170244,2026-05-29 07:41:03,813,60,12
130,강아지 장난감 거의 새상품입니다,강아지 장난감 상태 양호합니다. 상도동 근처에서 시간 맞춰 거래 가능합니다.,반려동물용품,19000,상도동,37.5033300192006,126.92652179803261,2026-05-23 11:40:03,214,77,8
131,배변패드 사용감 적어요,배변패드 상태 양호합니다. 봉천동 근처에서 시간 맞춰 거래 가능합니다.,반려동물용품,8000,봉천동,37.48665306208978,126.93807348655992,2026-05-27 14:44:03,174,34,28
132,카시트 급처합니다,흑석동 인근에서 거래 원합니다. 카시트 필요하신 분 연락 주세요.,유아용품,43000,흑석동,37.50766166118045,126.95941605437211,2026-05-23 16:07:03,524,47,15
133,롱패딩 사용감 적어요,봉천동 인근에서 거래 원합니다. 롱패딩 필요하신 분 연락 주세요.,의류,232000,봉천동,37.48591110485932,126.94418841154766,2026-06-01 13:30:03,303,60,44
134,강아지 장난감 판매합니다,봉천동에서 거래 가능한 강아지 장난감입니다. 상태 좋고 빠른 거래 원합니다.,반려동물용품,11000,봉천동,37.48287771505886,126.93771186860323,2026-05-30 12:57:03,972,93,38
135,정보처리기사 교재 거의 새상품입니다,봉천동에서 거래 가능한 정보처리기사 교재입니다. 상태 좋고 빠른 거래 원합니다.,도서,17000,봉천동,37.4787085789529,126.94565146885661,2026-05-22 20:42:03,647,58,4
136,퍼즐 판매합니다,퍼즐 판매합니다. 청룡동 근처 직거래 가능하고 사용감은 적은 편입니다.,게임/취미,12000,청룡동,37.480365675952086,126.95434371301741,2026-05-23 16:53:03,371,30,36
137,미니 냉장고 사용감 적어요,미니 냉장고 상태 양호합니다. 봉천동 근처에서 시간 맞춰 거래 가능합니다.,생활가전,189000,봉천동,37.478035344251666,126.94046881321526,2026-05-20 00:57:03,30,49,30
138,캠핑 의자 판매합니다,사당동에서 거래 가능한 캠핑 의자입니다. 상태 좋고 빠른 거래 원합니다.,스포츠/레저,54000,사당동,37.47741903321558,126.98416678926442,2026-05-28 17:50:03,653,13,49
139,사무용 의자 사용감 적어요,사무용 의자 판매합니다. 사당동 근처 직거래 가능하고 사용감은 적은 편입니다.,가구/인테리어,138000,사당동,37.47876045057596,126.98603605150713,2026-05-14 01:52:03,196,17,4
140,갤럭시워치 급처합니다,갤럭시워치 판매합니다. 신림동 근처 직거래 가능하고 사용감은 적은 편입니다.,디지털기기,90000,신림동,37.48173313765203,126.93153290918819,2026-05-26 08:00:03,417,69,30
141,운동복 세트 사용감 적어요,신림동 인근에서 거래 원합니다. 운동복 세트 필요하신 분 연락 주세요.,의류,49000,신림동,37.48359736633708,126.93356478717824,2026-06-02 06:05:03,920,51,47
142,실내 자전거 이사 정리합니다,흑석동 인근에서 거래 원합니다. 실내 자전거 필요하신 분 연락 주세요.,스포츠/레저,286000,흑석동,37.50804499661319,126.96290607152004,2026-05-11 01:15:03,830,10,46
143,전신거울 거의 새상품입니다,사당동에서 거래 가능한 전신거울입니다. 상태 좋고 빠른 거래 원합니다.,가구/인테리어,20000,사당동,37.47877662911311,126.97826644772066,2026-05-25 20:14:03,323,57,38
144,강아지 옷 이사 정리합니다,신림동 인근에서 거래 원합니다. 강아지 옷 필요하신 분 연락 주세요.,반려동물용품,32000,신림동,37.48591183888894,126.92806210231508,2026-05-27 20:42:03,980,7,4
145,청소도구 세트 판매합니다,청소도구 세트 상태 양호합니다. 낙성대동 근처에서 시간 맞춰 거래 가능합니다.,생활용품,48000,낙성대동,37.479585153735066,126.95726328473107,2026-05-11 03:30:03,139,8,15
146,아기 신발 판매합니다,집 정리하면서 아기 신발 내놓습니다. 낙성대동에서 직거래 가능합니다.,유아용품,28000,낙성대동,37.47709459881536,126.95758034045953,2026-05-25 02:44:03,88,73,8
147,정보처리기사 교재 저렴하게 내놓습니다,정보처리기사 교재 판매합니다. 신림동 근처 직거래 가능하고 사용감은 적은 편입니다.,도서,25000,신림동,37.48694964483531,126.93104037811207,2026-05-20 04:34:03,585,15,16
148,볼캡 거의 새상품입니다,볼캡 판매합니다. 흑석동 근처 직거래 가능하고 사용감은 적은 편입니다.,의류,12000,흑석동,37.51377262404023,126.96670513218358,2026-06-01 15:04:03,186,91,28
149,침낭 저렴하게 내놓습니다,대학동 인근에서 거래 원합니다. 침낭 필요하신 분 연락 주세요.,스포츠/레저,55000,대학동,37.47353696383845,126.93688755745175,2026-05-13 18:33:03,727,81,11
150,공기청정기 상태 좋아요,집 정리하면서 공기청정기 내놓습니다. 청룡동에서 직거래 가능합니다.,생활가전,53000,청룡동,37.477497712297136,126.95654246446834,2026-05-24 23:56:03,387,59,35
151,선풍기 필요하신 분 가져가세요,선풍기 상태 양호합니다. 흑석동 근처에서 시간 맞춰 거래 가능합니다.,생활가전,62000,흑석동,37.51352379731514,126.96502338589386,2026-05-12 03:40:03,598,9,8
152,강아지 장난감 사용감 적어요,강아지 장난감 상태 양호합니다. 낙성대동 근처에서 시간 맞춰 거래 가능합니다.,반려동물용품,23000,낙성대동,37.47682863786449,126.9622821162742,2026-05-18 11:43:03,999,16,27
153,미니 냉장고 상태 좋아요,미니 냉장고 판매합니다. 대학동 근처 직거래 가능하고 사용감은 적은 편입니다.,생활가전,91000,대학동,37.474059337061554,126.93430605308983,2026-05-25 19:18:03,364,66,18
154,텀블러 상태 좋아요,텀블러 상태 양호합니다. 대학동 근처에서 시간 맞춰 거래 가능합니다.,생활용품,37000,대학동,37.467141942668796,126.93838732873384,2026-06-03 00:51:03,182,75,37
155,카메라 삼각대 판매합니다,신림동에서 거래 가능한 카메라 삼각대입니다. 상태 좋고 빠른 거래 원합니다.,게임/취미,15000,신림동,37.48130808379702,126.92972137202446,2026-05-05 20:43:03,600,33,41
156,닌텐도 스위치 이사 정리합니다,대학동 인근에서 거래 원합니다. 닌텐도 스위치 필요하신 분 연락 주세요.,게임/취미,303000,대학동,37.47248613571673,126.93338080447016,2026-05-28 20:07:03,314,58,4
157,블록 장난감 이사 정리합니다,청룡동 인근에서 거래 원합니다. 블록 장난감 필요하신 분 연락 주세요.,유아용품,23000,청룡동,37.477507661515524,126.9514054019805,2026-05-25 19:12:03,761,44,25
158,수납 박스 사용감 적어요,집 정리하면서 수납 박스 내놓습니다. 청룡동에서 직거래 가능합니다.,생활용품,10000,청룡동,37.4791021200497,126.951541498335,2026-05-28 03:17:03,154,12,3
159,우쿨렐레 급처합니다,낙성대동 인근에서 거래 원합니다. 우쿨렐레 필요하신 분 연락 주세요.,게임/취미,93000,낙성대동,37.48175969411095,126.95826815117738,2026-05-13 07:20:03,791,20,31
160,자기계발서 판매합니다,집 정리하면서 자기계발서 내놓습니다. 봉천동에서 직거래 가능합니다.,도서,21000,봉천동,37.478105404046275,126.94154894203524,2026-05-22 10:19:03,607,45,3
161,반려동물 이동장 판매합니다,집 정리하면서 반려동물 이동장 내놓습니다. 봉천동에서 직거래 가능합니다.,반려동물용품,27000,봉천동,37.48125937352518,126.94060581621014,2026-05-08 08:46:03,384,97,25
162,퍼즐 급처합니다,퍼즐 상태 양호합니다. 사당동 근처에서 시간 맞춰 거래 가능합니다.,게임/취미,12000,사당동,37.47439720677624,126.98649090700621,2026-06-03 05:00:03,471,97,35
163,Xbox 컨트롤러 상태 좋아요,집 정리하면서 Xbox 컨트롤러 내놓습니다. 봉천동에서 직거래 가능합니다.,게임/취미,77000,봉천동,37.47904267359369,126.94262462951161,2026-05-11 06:57:03,971,46,48
164,아기 옷 세트 판매합니다,신림동에서 거래 가능한 아기 옷 세트입니다. 상태 좋고 빠른 거래 원합니다.,유아용품,13000,신림동,37.480689406645766,126.93293131692079,2026-05-14 06:41:03,495,66,29
165,스탠드 조명 사용감 적어요,집 정리하면서 스탠드 조명 내놓습니다. 낙성대동에서 직거래 가능합니다.,가구/인테리어,48000,낙성대동,37.47669846652066,126.95922924260645,2026-05-18 07:00:03,858,65,34
166,배변패드 판매합니다,사당동 인근에서 거래 원합니다. 배변패드 필요하신 분 연락 주세요.,반려동물용품,26000,사당동,37.47789260480602,126.98256909615954,2026-06-02 03:55:03,325,92,44
167,인문교양서 급처합니다,인문교양서 상태 양호합니다. 신림동 근처에서 시간 맞춰 거래 가능합니다.,도서,20000,신림동,37.48761167124958,126.925477757083,2026-05-31 00:52:03,748,79,49
168,울 코트 저렴하게 내놓습니다,청룡동에서 거래 가능한 울 코트입니다. 상태 좋고 빠른 거래 원합니다.,의류,142000,청룡동,37.48030377409323,126.95544972301806,2026-05-26 04:23:03,432,88,13
169,배변패드 판매합니다,배변패드 상태 양호합니다. 낙성대동 근처에서 시간 맞춰 거래 가능합니다.,반려동물용품,11000,낙성대동,37.47493752598738,126.95533182423858,2026-05-19 06:50:03,499,67,24
170,장우산 사용감 적어요,장우산 상태 양호합니다. 대학동 근처에서 시간 맞춰 거래 가능합니다.,생활용품,18000,대학동,37.47501485546327,126.94162260296477,2026-05-30 10:15:03,581,38,14
171,영어 회화책 급처합니다,흑석동 인근에서 거래 원합니다. 영어 회화책 필요하신 분 연락 주세요.,도서,20000,흑석동,37.50667789375498,126.96433476803874,2026-05-24 23:33:03,966,92,17
172,멀티탭 필요하신 분 가져가세요,멀티탭 판매합니다. 사당동 근처 직거래 가능하고 사용감은 적은 편입니다.,생활용품,12000,사당동,37.47815972050551,126.98407338499717,2026-06-04 07:47:03,90,44,28
173,체크 셔츠 거의 새상품입니다,체크 셔츠 판매합니다. 대학동 근처 직거래 가능하고 사용감은 적은 편입니다.,의류,14000,대학동,37.47229833964893,126.93711041489733,2026-05-16 17:55:03,255,31,3
174,울 코트 저렴하게 내놓습니다,상도동 인근에서 거래 원합니다. 울 코트 필요하신 분 연락 주세요.,의류,150000,상도동,37.50437910711833,126.9275794107621,2026-06-01 19:43:03,150,0,35
175,강아지 장난감 급처합니다,대학동 인근에서 거래 원합니다. 강아지 장난감 필요하신 분 연락 주세요.,반려동물용품,12000,대학동,37.471341333531754,126.93715152276894,2026-05-16 15:34:03,797,11,41
176,아이패드 미니 필요하신 분 가져가세요,낙성대동에서 거래 가능한 아이패드 미니입니다. 상태 좋고 빠른 거래 원합니다.,디지털기기,453000,낙성대동,37.48056743167918,126.9536926716848,2026-05-11 02:21:03,969,95,18
177,Xbox 컨트롤러 사용감 적어요,집 정리하면서 Xbox 컨트롤러 내놓습니다. 대학동에서 직거래 가능합니다.,게임/취미,99000,대학동,37.47028020769006,126.93372811398274,2026-05-20 01:36:03,971,17,32
178,무선청소기 상태 좋아요,흑석동 인근에서 거래 원합니다. 무선청소기 필요하신 분 연락 주세요.,생활가전,135000,흑석동,37.51054401139895,126.9605316128772,2026-06-04 18:11:03,819,37,36
179,통기타 필요하신 분 가져가세요,사당동에서 거래 가능한 통기타입니다. 상태 좋고 빠른 거래 원합니다.,게임/취미,235000,사당동,37.480958253870014,126.9766683012054,2026-05-15 14:21:03,153,61,20
180,아기 식탁의자 이사 정리합니다,대학동 인근에서 거래 원합니다. 아기 식탁의자 필요하신 분 연락 주세요.,유아용품,97000,대학동,37.46919552090561,126.93416302577423,2026-05-17 17:56:03,21,33,41
181,전기히터 거의 새상품입니다,집 정리하면서 전기히터 내놓습니다. 낙성대동에서 직거래 가능합니다.,생활가전,97000,낙성대동,37.47818711325199,126.96300635623746,2026-05-19 18:43:03,328,88,7
182,헬스 장갑 급처합니다,헬스 장갑 판매합니다. 청룡동 근처 직거래 가능하고 사용감은 적은 편입니다.,스포츠/레저,20000,청룡동,37.48321940726856,126.95682796888282,2026-06-01 02:45:03,630,47,26
183,욕실 선반 급처합니다,욕실 선반 상태 양호합니다. 봉천동 근처에서 시간 맞춰 거래 가능합니다.,생활용품,33000,봉천동,37.478217580475565,126.9420764924871,2026-05-19 19:09:03,89,72,7
184,욕실 선반 상태 좋아요,낙성대동 인근에서 거래 원합니다. 욕실 선반 필요하신 분 연락 주세요.,생활용품,38000,낙성대동,37.47668827966831,126.96258889351714,2026-05-22 13:49:03,220,91,37
185,물그릇 판매합니다,물그릇 판매합니다. 흑석동 근처 직거래 가능하고 사용감은 적은 편입니다.,반려동물용품,19000,흑석동,37.510527677122276,126.96168169564034,2026-05-23 02:56:03,69,71,29
186,무선 키보드 거의 새상품입니다,무선 키보드 판매합니다. 신림동 근처 직거래 가능하고 사용감은 적은 편입니다.,디지털기기,47000,신림동,37.4846116350408,126.92460255631318,2026-06-03 16:05:03,362,89,4
187,전기장판 판매합니다,집 정리하면서 전기장판 내놓습니다. 대학동에서 직거래 가능합니다.,생활가전,33000,대학동,37.475237825669375,126.93554460920639,2026-05-12 12:43:03,666,93,41
188,블록 장난감 필요하신 분 가져가세요,상도동에서 거래 가능한 블록 장난감입니다. 상태 좋고 빠른 거래 원합니다.,유아용품,74000,상도동,37.50452846776078,126.92993058631784,2026-05-31 20:37:03,366,15,11
189,3인용 소파 판매합니다,신림동 인근에서 거래 원합니다. 3인용 소파 필요하신 분 연락 주세요.,가구/인테리어,317000,신림동,37.487433604373756,126.92647512038504,2026-05-14 17:58:03,444,68,24
190,폼롤러 거의 새상품입니다,청룡동에서 거래 가능한 폼롤러입니다. 상태 좋고 빠른 거래 원합니다.,스포츠/레저,6000,청룡동,37.47860666294143,126.94837290902889,2026-05-10 20:06:03,639,98,1
191,플스5 게임 타이틀 이사 정리합니다,플스5 게임 타이틀 판매합니다. 신림동 근처 직거래 가능하고 사용감은 적은 편입니다.,게임/취미,67000,신림동,37.486743857087475,126.93176063621465,2026-06-04 05:04:03,249,69,13
192,화장대 거의 새상품입니다,화장대 상태 양호합니다. 청룡동 근처에서 시간 맞춰 거래 가능합니다.,가구/인테리어,111000,청룡동,37.47921764435144,126.94913260434163,2026-05-17 21:43:03,698,41,15
193,화장품 정리함 필요하신 분 가져가세요,대학동 인근에서 거래 원합니다. 화장품 정리함 필요하신 분 연락 주세요.,생활용품,8000,대학동,37.47238750123286,126.93735850665985,2026-05-18 22:36:03,762,22,40
194,갤럭시 버즈 필요하신 분 가져가세요,집 정리하면서 갤럭시 버즈 내놓습니다. 사당동에서 직거래 가능합니다.,디지털기기,92000,사당동,37.47633518820412,126.9850934093226,2026-06-01 08:08:03,198,96,34
195,코딩 테스트 책 상태 좋아요,흑석동에서 거래 가능한 코딩 테스트 책입니다. 상태 좋고 빠른 거래 원합니다.,도서,27000,흑석동,37.5062285851609,126.9606333673306,2026-05-23 03:57:03,552,17,24
196,전기히터 사용감 적어요,전기히터 상태 양호합니다. 봉천동 근처에서 시간 맞춰 거래 가능합니다.,생활가전,34000,봉천동,37.477995475542066,126.93732784328373,2026-06-04 09:08:03,699,77,38
197,퍼즐 급처합니다,퍼즐 판매합니다. 흑석동 근처 직거래 가능하고 사용감은 적은 편입니다.,게임/취미,30000,흑석동,37.513171597632024,126.96822077556115,2026-05-07 07:13:03,989,1,13
198,전기장판 급처합니다,집 정리하면서 전기장판 내놓습니다. 청룡동에서 직거래 가능합니다.,생활가전,40000,청룡동,37.481536501274164,126.95129259555551,2026-05-19 06:43:03,299,48,29
199,컴퓨터활용능력 교재 이사 정리합니다,흑석동에서 거래 가능한 컴퓨터활용능력 교재입니다. 상태 좋고 빠른 거래 원합니다.,도서,20000,흑석동,37.50793930170579,126.96422524727464,2026-05-12 06:34:03,218,47,20
200,맨투맨 판매합니다,맨투맨 상태 양호합니다. 대학동 근처에서 시간 맞춰 거래 가능합니다.,의류,47000,대학동,37.46889865285978,126.93559839774741,2026-05-17 18:06:03,312,19,12
201,운동화 사용감 적어요,집 정리하면서 운동화 내놓습니다. 대학동에서 직거래 가능합니다.,의류,145000,대학동,37.466999585285805,126.93726546328726,2026-05-22 11:46:03,824,45,10
202,전신거울 판매합니다,신림동에서 거래 가능한 전신거울입니다. 상태 좋고 빠른 거래 원합니다.,가구/인테리어,16000,신림동,37.479879679416655,126.92551029646465,2026-05-12 17:06:03,150,80,14
203,로퍼 이사 정리합니다,사당동에서 거래 가능한 로퍼입니다. 상태 좋고 빠른 거래 원합니다.,의류,94000,사당동,37.47647854384003,126.97666612356993,2026-05-15 19:33:03,641,61,42
204,디퓨저 판매합니다,디퓨저 상태 양호합니다. 신림동 근처에서 시간 맞춰 거래 가능합니다.,생활용품,22000,신림동,37.48350573208676,126.93339711912795,2026-05-19 08:31:03,524,89,43
205,책장 저렴하게 내놓습니다,책장 판매합니다. 낙성대동 근처 직거래 가능하고 사용감은 적은 편입니다.,가구/인테리어,44000,낙성대동,37.479749363320835,126.95439019243815,2026-05-17 01:16:03,844,45,17
206,블록 장난감 급처합니다,청룡동 인근에서 거래 원합니다. 블록 장난감 필요하신 분 연락 주세요.,유아용품,15000,청룡동,37.4799926402224,126.9532270143953,2026-05-15 20:44:03,42,11,25
207,외장하드 판매합니다,낙성대동에서 거래 가능한 외장하드입니다. 상태 좋고 빠른 거래 원합니다.,디지털기기,83000,낙성대동,37.481573292232895,126.96333839745637,2026-05-09 03:51:03,813,42,36
208,냄비 세트 급처합니다,냄비 세트 상태 양호합니다. 청룡동 근처에서 시간 맞춰 거래 가능합니다.,생활용품,131000,청룡동,37.485193116508654,126.95333509864048,2026-05-28 15:33:03,86,87,17
209,아이패드 미니 사용감 적어요,아이패드 미니 판매합니다. 신림동 근처 직거래 가능하고 사용감은 적은 편입니다.,디지털기기,550000,신림동,37.48082450250715,126.92640472194304,2026-05-31 18:40:03,417,9,19
210,기저귀 정리함 사용감 적어요,기저귀 정리함 판매합니다. 상도동 근처 직거래 가능하고 사용감은 적은 편입니다.,유아용품,10000,상도동,37.49692144004395,126.92676018246566,2026-05-19 18:10:03,64,12,27
211,통기타 사용감 적어요,신림동 인근에서 거래 원합니다. 통기타 필요하신 분 연락 주세요.,게임/취미,260000,신림동,37.48105737845896,126.92985875121211,2026-05-21 10:10:03,576,48,27
212,카시트 거의 새상품입니다,청룡동에서 거래 가능한 카시트입니다. 상태 좋고 빠른 거래 원합니다.,유아용품,72000,청룡동,37.47774276890603,126.95159621975397,2026-05-28 13:08:03,738,100,40
213,푸쉬업바 저렴하게 내놓습니다,신림동 인근에서 거래 원합니다. 푸쉬업바 필요하신 분 연락 주세요.,스포츠/레저,19000,신림동,37.48350979515976,126.92956985032221,2026-05-25 09:26:03,145,11,11
214,디퓨저 저렴하게 내놓습니다,신림동에서 거래 가능한 디퓨저입니다. 상태 좋고 빠른 거래 원합니다.,생활용품,27000,신림동,37.48783718177268,126.92412340614884,2026-05-19 14:54:03,622,100,20
215,아기 장난감 저렴하게 내놓습니다,아기 장난감 상태 양호합니다. 청룡동 근처에서 시간 맞춰 거래 가능합니다.,유아용품,38000,청룡동,37.47921131265375,126.9526312394221,2026-05-30 20:08:03,183,17,17
216,토스터기 필요하신 분 가져가세요,집 정리하면서 토스터기 내놓습니다. 대학동에서 직거래 가능합니다.,생활가전,27000,대학동,37.47185033687769,126.93773806398039,2026-05-21 15:09:03,267,31,46
217,트레이닝 팬츠 저렴하게 내놓습니다,낙성대동 인근에서 거래 원합니다. 트레이닝 팬츠 필요하신 분 연락 주세요.,의류,8000,낙성대동,37.479840764619574,126.9568954171628,2026-05-06 05:11:03,871,79,24
218,자전거 헬멧 상태 좋아요,대학동 인근에서 거래 원합니다. 자전거 헬멧 필요하신 분 연락 주세요.,스포츠/레저,35000,대학동,37.4685144815158,126.93874957767673,2026-05-21 07:21:03,997,50,20
219,목줄 급처합니다,집 정리하면서 목줄 내놓습니다. 사당동에서 직거래 가능합니다.,반려동물용품,11000,사당동,37.477522270342504,126.9820562908545,2026-05-10 05:09:03,126,72,12
220,식기 세트 이사 정리합니다,집 정리하면서 식기 세트 내놓습니다. 청룡동에서 직거래 가능합니다.,생활용품,42000,청룡동,37.48119303215289,126.95403336039654,2026-05-09 19:28:03,848,52,43
221,슬랙스 상태 좋아요,집 정리하면서 슬랙스 내놓습니다. 상도동에서 직거래 가능합니다.,의류,14000,상도동,37.4996661264303,126.93520392184477,2026-05-21 22:02:03,606,51,34
222,아기 옷 세트 판매합니다,아기 옷 세트 상태 양호합니다. 사당동 근처에서 시간 맞춰 거래 가능합니다.,유아용품,43000,사당동,37.47824693887196,126.9782633849328,2026-05-16 15:26:03,797,31,42
223,플스5 게임 타이틀 필요하신 분 가져가세요,집 정리하면서 플스5 게임 타이틀 내놓습니다. 사당동에서 직거래 가능합니다.,게임/취미,26000,사당동,37.476787977668494,126.98240518295525,2026-06-05 14:16:03,237,65,47
224,피규어 이사 정리합니다,집 정리하면서 피규어 내놓습니다. 사당동에서 직거래 가능합니다.,게임/취미,128000,사당동,37.47504967387599,126.97684562653026,2026-05-11 19:55:03,717,64,9
225,선풍기 필요하신 분 가져가세요,봉천동에서 거래 가능한 선풍기입니다. 상태 좋고 빠른 거래 원합니다.,생활가전,28000,봉천동,37.482811148298005,126.94008300296635,2026-05-25 08:11:03,476,100,13
226,전기히터 이사 정리합니다,사당동에서 거래 가능한 전기히터입니다. 상태 좋고 빠른 거래 원합니다.,생활가전,48000,사당동,37.47269362681784,126.9846005012575,2026-06-03 19:25:03,33,43,41
227,로퍼 상태 좋아요,낙성대동 인근에서 거래 원합니다. 로퍼 필요하신 분 연락 주세요.,의류,86000,낙성대동,37.47364451775151,126.96000478876661,2026-05-23 03:18:03,826,51,40
228,아기 장난감 판매합니다,집 정리하면서 아기 장난감 내놓습니다. 청룡동에서 직거래 가능합니다.,유아용품,42000,청룡동,37.47898344830516,126.95473759743338,2026-05-23 05:32:03,731,27,13
229,인덕션 저렴하게 내놓습니다,낙성대동 인근에서 거래 원합니다. 인덕션 필요하신 분 연락 주세요.,생활가전,113000,낙성대동,37.47707715019627,126.95999108585667,2026-05-30 03:25:03,278,85,31
230,통기타 필요하신 분 가져가세요,봉천동 인근에서 거래 원합니다. 통기타 필요하신 분 연락 주세요.,게임/취미,210000,봉천동,37.485606133831844,126.94578682579804,2026-05-09 02:53:03,186,86,45
231,플스4 게임 타이틀 상태 좋아요,사당동에서 거래 가능한 플스4 게임 타이틀입니다. 상태 좋고 빠른 거래 원합니다.,게임/취미,25000,사당동,37.47670824869487,126.9807823910621,2026-05-27 14:21:03,392,88,9
232,수납장 필요하신 분 가져가세요,수납장 판매합니다. 상도동 근처 직거래 가능하고 사용감은 적은 편입니다.,가구/인테리어,144000,상도동,37.50014912575833,126.93089642026192,2026-05-15 23:48:03,951,82,11
233,침대 프레임 사용감 적어요,침대 프레임 상태 양호합니다. 흑석동 근처에서 시간 맞춰 거래 가능합니다.,가구/인테리어,63000,흑석동,37.51195215940654,126.96823829089415,2026-05-09 06:32:03,506,17,12
234,담요 필요하신 분 가져가세요,집 정리하면서 담요 내놓습니다. 흑석동에서 직거래 가능합니다.,생활용품,50000,흑석동,37.50410860705643,126.96621056618545,2026-05-10 03:01:03,181,10,36
235,파이썬 입문서 거의 새상품입니다,파이썬 입문서 상태 양호합니다. 청룡동 근처에서 시간 맞춰 거래 가능합니다.,도서,17000,청룡동,37.48115313343031,126.95280805980214,2026-05-31 02:56:03,770,98,49
236,Xbox 컨트롤러 거의 새상품입니다,Xbox 컨트롤러 상태 양호합니다. 사당동 근처에서 시간 맞춰 거래 가능합니다.,게임/취미,35000,사당동,37.472624164388776,126.98490070716542,2026-05-11 18:04:03,569,27,27
237,운동복 세트 판매합니다,흑석동 인근에서 거래 원합니다. 운동복 세트 필요하신 분 연락 주세요.,의류,59000,흑석동,37.51191888912596,126.9606987816759,2026-05-09 15:04:03,896,15,49
238,필름 카메라 필요하신 분 가져가세요,필름 카메라 상태 양호합니다. 낙성대동 근처에서 시간 맞춰 거래 가능합니다.,게임/취미,101000,낙성대동,37.47530815478952,126.95641085018791,2026-05-11 10:40:03,221,7,36
239,청소도구 세트 사용감 적어요,대학동 인근에서 거래 원합니다. 청소도구 세트 필요하신 분 연락 주세요.,생활용품,41000,대학동,37.475227719949935,126.93965691048292,2026-05-28 00:35:03,705,12,8
240,애플워치 상태 좋아요,애플워치 판매합니다. 낙성대동 근처 직거래 가능하고 사용감은 적은 편입니다.,디지털기기,194000,낙성대동,37.47572700750302,126.95502171633076,2026-05-14 06:39:03,263,97,43
241,인문교양서 필요하신 분 가져가세요,집 정리하면서 인문교양서 내놓습니다. 상도동에서 직거래 가능합니다.,도서,7000,상도동,37.50154703615728,126.93477317356833,2026-05-16 15:07:03,537,95,17
242,강아지 장난감 사용감 적어요,신림동에서 거래 가능한 강아지 장난감입니다. 상태 좋고 빠른 거래 원합니다.,반려동물용품,26000,신림동,37.48715677926648,126.92797715868188,2026-05-21 20:50:03,724,45,4
243,아기 그림책 급처합니다,흑석동 인근에서 거래 원합니다. 아기 그림책 필요하신 분 연락 주세요.,유아용품,15000,흑석동,37.50946142110917,126.96345337904009,2026-05-10 08:11:03,570,73,8
244,덤벨 세트 판매합니다,집 정리하면서 덤벨 세트 내놓습니다. 봉천동에서 직거래 가능합니다.,스포츠/레저,12000,봉천동,37.479623182063975,126.9434859188191,2026-06-02 12:04:03,477,0,27
245,원목 식탁 상태 좋아요,대학동에서 거래 가능한 원목 식탁입니다. 상태 좋고 빠른 거래 원합니다.,가구/인테리어,385000,대학동,37.46725525079159,126.93576341566933,2026-05-25 09:27:03,390,85,41
246,영어 회화책 급처합니다,상도동에서 거래 가능한 영어 회화책입니다. 상태 좋고 빠른 거래 원합니다.,도서,8000,상도동,37.4968619086146,126.93279982725122,2026-06-05 11:02:03,89,16,37
247,아이폰 13 사용감 적어요,집 정리하면서 아이폰 13 내놓습니다. 봉천동에서 직거래 가능합니다.,디지털기기,317000,봉천동,37.48565956833828,126.93763201533208,2026-05-21 15:18:03,402,11,46
248,캠핑 테이블 상태 좋아요,캠핑 테이블 판매합니다. 상도동 근처 직거래 가능하고 사용감은 적은 편입니다.,스포츠/레저,56000,상도동,37.496241165497906,126.92951187718826,2026-06-03 00:56:03,18,78,41
249,맨투맨 필요하신 분 가져가세요,맨투맨 판매합니다. 흑석동 근처 직거래 가능하고 사용감은 적은 편입니다.,의류,15000,흑석동,37.51110009148896,126.96211535640383,2026-05-08 14:24:03,780,15,37
250,젖병 소독기 상태 좋아요,청룡동 인근에서 거래 원합니다. 젖병 소독기 필요하신 분 연락 주세요.,유아용품,41000,청룡동,37.479049208100065,126.95711279245096,2026-05-28 23:54:03,624,92,38
251,USB 허브 거의 새상품입니다,USB 허브 상태 양호합니다. 청룡동 근처에서 시간 맞춰 거래 가능합니다.,디지털기기,37000,청룡동,37.484038015995765,126.95563778031726,2026-05-29 18:07:03,312,82,3
252,운동화 필요하신 분 가져가세요,운동화 판매합니다. 봉천동 근처 직거래 가능하고 사용감은 적은 편입니다.,의류,147000,봉천동,37.48693924401674,126.93791982880732,2026-05-15 22:28:03,550,1,23
253,우쿨렐레 사용감 적어요,집 정리하면서 우쿨렐레 내놓습니다. 낙성대동에서 직거래 가능합니다.,게임/취미,118000,낙성대동,37.473957429385166,126.96282579288933,2026-06-03 16:55:03,79,1,16
254,아기 옷 세트 거의 새상품입니다,집 정리하면서 아기 옷 세트 내놓습니다. 상도동에서 직거래 가능합니다.,유아용품,49000,상도동,37.49612680443805,126.92683597073777,2026-05-24 14:52:03,559,68,39
255,미니 냉장고 급처합니다,미니 냉장고 상태 양호합니다. 낙성대동 근처에서 시간 맞춰 거래 가능합니다.,생활가전,133000,낙성대동,37.47823154569463,126.95670169493397,2026-05-23 22:52:03,791,83,43
256,아기 욕조 급처합니다,아기 욕조 판매합니다. 신림동 근처 직거래 가능하고 사용감은 적은 편입니다.,유아용품,10000,신림동,37.47975028619687,126.9306607957886,2026-05-07 04:25:03,474,78,38
257,책장 판매합니다,낙성대동에서 거래 가능한 책장입니다. 상태 좋고 빠른 거래 원합니다.,가구/인테리어,40000,낙성대동,37.47439246961526,126.95731869430892,2026-05-21 05:59:03,539,100,46
258,영어 회화책 저렴하게 내놓습니다,신림동 인근에서 거래 원합니다. 영어 회화책 필요하신 분 연락 주세요.,도서,18000,신림동,37.48547532832899,126.92896147568935,2026-05-28 01:28:03,279,91,36
259,공구 세트 판매합니다,공구 세트 상태 양호합니다. 흑석동 근처에서 시간 맞춰 거래 가능합니다.,생활용품,31000,흑석동,37.51054120431563,126.95975333603533,2026-05-25 12:16:03,801,13,36
260,식기 세트 판매합니다,식기 세트 판매합니다. 신림동 근처 직거래 가능하고 사용감은 적은 편입니다.,생활용품,10000,신림동,37.488511600771574,126.93257485197748,2026-05-21 06:08:03,952,19,11
261,디퓨저 급처합니다,디퓨저 판매합니다. 사당동 근처 직거래 가능하고 사용감은 적은 편입니다.,생활용품,31000,사당동,37.47532808166738,126.9816204094256,2026-05-06 18:12:03,287,9,36
262,아이패드 미니 급처합니다,집 정리하면서 아이패드 미니 내놓습니다. 신림동에서 직거래 가능합니다.,디지털기기,285000,신림동,37.482473009217266,126.92953091395324,2026-05-08 02:37:03,299,99,19
263,갤럭시 버즈 급처합니다,갤럭시 버즈 상태 양호합니다. 대학동 근처에서 시간 맞춰 거래 가능합니다.,디지털기기,140000,대학동,37.471516909349845,126.93673360675855,2026-05-26 17:53:03,258,59,23
264,토트백 급처합니다,낙성대동에서 거래 가능한 토트백입니다. 상태 좋고 빠른 거래 원합니다.,의류,114000,낙성대동,37.480571986142515,126.96310990262144,2026-06-05 09:58:03,364,81,44
265,와이파이 공유기 필요하신 분 가져가세요,대학동에서 거래 가능한 와이파이 공유기입니다. 상태 좋고 빠른 거래 원합니다.,디지털기기,36000,대학동,37.472716524747,126.93273026638359,2026-05-20 10:06:03,513,7,9
266,로퍼 필요하신 분 가져가세요,집 정리하면서 로퍼 내놓습니다. 사당동에서 직거래 가능합니다.,의류,25000,사당동,37.472348304843294,126.98227820728289,2026-05-18 14:00:03,146,81,25
267,기저귀 정리함 상태 좋아요,청룡동 인근에서 거래 원합니다. 기저귀 정리함 필요하신 분 연락 주세요.,유아용품,21000,청룡동,37.48451899834688,126.95096251568779,2026-05-09 06:33:03,830,50,44
268,반려동물 이동장 급처합니다,반려동물 이동장 판매합니다. 봉천동 근처 직거래 가능하고 사용감은 적은 편입니다.,반려동물용품,27000,봉천동,37.4820956674774,126.93974033287812,2026-05-11 23:26:03,169,13,10
269,전기밥솥 사용감 적어요,집 정리하면서 전기밥솥 내놓습니다. 청룡동에서 직거래 가능합니다.,생활가전,108000,청룡동,37.484275969046806,126.95074214982884,2026-05-22 08:38:03,132,11,10
270,플스5 게임 타이틀 급처합니다,플스5 게임 타이틀 판매합니다. 사당동 근처 직거래 가능하고 사용감은 적은 편입니다.,게임/취미,25000,사당동,37.47837183376989,126.97920166792721,2026-05-14 10:10:03,415,65,3
271,컴퓨터 책상 필요하신 분 가져가세요,컴퓨터 책상 상태 양호합니다. 흑석동 근처에서 시간 맞춰 거래 가능합니다.,가구/인테리어,83000,흑석동,37.5039195692317,126.96690372331895,2026-06-02 03:26:03,833,17,7
272,맨투맨 급처합니다,상도동 인근에서 거래 원합니다. 맨투맨 필요하신 분 연락 주세요.,의류,53000,상도동,37.50377428581512,126.92674987180693,2026-05-15 21:27:03,606,75,16
273,공기청정기 이사 정리합니다,낙성대동에서 거래 가능한 공기청정기입니다. 상태 좋고 빠른 거래 원합니다.,생활가전,209000,낙성대동,37.476131563772384,126.96084430847131,2026-06-02 16:03:03,61,21,36
274,강아지 하우스 필요하신 분 가져가세요,강아지 하우스 판매합니다. 상도동 근처 직거래 가능하고 사용감은 적은 편입니다.,반려동물용품,55000,상도동,37.494946494437315,126.93219176548845,2026-05-30 12:15:03,296,57,9
275,운동복 세트 이사 정리합니다,운동복 세트 상태 양호합니다. 상도동 근처에서 시간 맞춰 거래 가능합니다.,의류,76000,상도동,37.49659457806667,126.93484652516224,2026-06-04 15:15:03,402,17,26
276,화장품 정리함 판매합니다,상도동 인근에서 거래 원합니다. 화장품 정리함 필요하신 분 연락 주세요.,생활용품,35000,상도동,37.49781604418668,126.92870435684769,2026-05-19 02:10:03,944,72,32
277,에어팟 프로 급처합니다,신림동 인근에서 거래 원합니다. 에어팟 프로 필요하신 분 연락 주세요.,디지털기기,104000,신림동,37.489196057468114,126.93373979861734,2026-05-11 01:59:03,376,98,37
278,가습기 급처합니다,가습기 상태 양호합니다. 대학동 근처에서 시간 맞춰 거래 가능합니다.,생활가전,17000,대학동,37.474952060320916,126.9417154192094,2026-05-12 09:56:03,876,49,22
279,침대 프레임 급처합니다,사당동 인근에서 거래 원합니다. 침대 프레임 필요하신 분 연락 주세요.,가구/인테리어,283000,사당동,37.47723606486783,126.98223108890863,2026-05-18 16:47:03,727,45,36
280,운동화 거의 새상품입니다,집 정리하면서 운동화 내놓습니다. 낙성대동에서 직거래 가능합니다.,의류,29000,낙성대동,37.47706448514148,126.95360683496384,2026-06-03 16:18:03,626,28,1
281,레고 세트 상태 좋아요,레고 세트 판매합니다. 사당동 근처 직거래 가능하고 사용감은 적은 편입니다.,게임/취미,185000,사당동,37.4793436649882,126.98506480887579,2026-06-04 17:23:03,610,90,9
282,아령 사용감 적어요,아령 상태 양호합니다. 상도동 근처에서 시간 맞춰 거래 가능합니다.,스포츠/레저,11000,상도동,37.50408693532027,126.93391842525,2026-05-26 08:12:03,149,20,46
283,하네스 사용감 적어요,하네스 상태 양호합니다. 낙성대동 근처에서 시간 맞춰 거래 가능합니다.,반려동물용품,49000,낙성대동,37.477689501557826,126.95535351629991,2026-05-07 21:42:03,375,28,42
284,영어 회화책 거의 새상품입니다,영어 회화책 판매합니다. 낙성대동 근처 직거래 가능하고 사용감은 적은 편입니다.,도서,5000,낙성대동,37.47212382742927,126.9596238866745,2026-05-05 18:56:03,410,98,36
285,피규어 저렴하게 내놓습니다,피규어 판매합니다. 흑석동 근처 직거래 가능하고 사용감은 적은 편입니다.,게임/취미,94000,흑석동,37.51016186770241,126.9682307962454,2026-05-13 15:17:03,365,40,10
286,배드민턴 라켓 판매합니다,배드민턴 라켓 판매합니다. 대학동 근처 직거래 가능하고 사용감은 적은 편입니다.,스포츠/레저,36000,대학동,37.47280413587997,126.93228147457734,2026-05-14 15:10:03,272,100,6
287,사료 보관통 필요하신 분 가져가세요,집 정리하면서 사료 보관통 내놓습니다. 낙성대동에서 직거래 가능합니다.,반려동물용품,36000,낙성대동,37.48008806977566,126.96148729994476,2026-05-08 05:10:03,569,48,6
288,피규어 상태 좋아요,흑석동에서 거래 가능한 피규어입니다. 상태 좋고 빠른 거래 원합니다.,게임/취미,18000,흑석동,37.5072180820115,126.96747931267734,2026-05-27 17:12:03,277,13,4
289,게이밍 의자 저렴하게 내놓습니다,게이밍 의자 상태 양호합니다. 사당동 근처에서 시간 맞춰 거래 가능합니다.,가구/인테리어,197000,사당동,37.47324997194762,126.98549753270404,2026-05-08 01:47:03,41,55,41
290,사무용 의자 저렴하게 내놓습니다,사무용 의자 판매합니다. 사당동 근처 직거래 가능하고 사용감은 적은 편입니다.,가구/인테리어,68000,사당동,37.4742526476935,126.97941523073445,2026-05-22 18:57:03,749,93,34
291,나이키 후드티 판매합니다,나이키 후드티 상태 양호합니다. 상도동 근처에서 시간 맞춰 거래 가능합니다.,의류,77000,상도동,37.497545494489664,126.9326202022601,2026-06-01 16:09:03,13,54,5
292,그림 도구 급처합니다,봉천동에서 거래 가능한 그림 도구입니다. 상태 좋고 빠른 거래 원합니다.,게임/취미,31000,봉천동,37.48068353400117,126.94057467348507,2026-05-30 21:14:03,93,60,7
293,스크래쳐 거의 새상품입니다,스크래쳐 상태 양호합니다. 봉천동 근처에서 시간 맞춰 거래 가능합니다.,반려동물용품,29000,봉천동,37.482057752707945,126.93923295966682,2026-05-31 05:36:03,400,47,11
294,반려동물 이동장 급처합니다,반려동물 이동장 상태 양호합니다. 대학동 근처에서 시간 맞춰 거래 가능합니다.,반려동물용품,17000,대학동,37.469037913865456,126.93721449006007,2026-05-31 18:50:03,109,10,42
295,피규어 판매합니다,피규어 상태 양호합니다. 상도동 근처에서 시간 맞춰 거래 가능합니다.,게임/취미,117000,상도동,37.503416538694175,126.93076262281082,2026-05-05 23:49:03,897,60,36
296,헤어드라이기 판매합니다,낙성대동에서 거래 가능한 헤어드라이기입니다. 상태 좋고 빠른 거래 원합니다.,생활가전,62000,낙성대동,37.47222675900633,126.9543836852214,2026-05-31 12:19:03,837,24,8
297,아기 식탁의자 상태 좋아요,대학동 인근에서 거래 원합니다. 아기 식탁의자 필요하신 분 연락 주세요.,유아용품,37000,대학동,37.47416624180646,126.93699688177543,2026-06-03 04:57:03,416,70,20
298,블루투스 스피커 필요하신 분 가져가세요,집 정리하면서 블루투스 스피커 내놓습니다. 봉천동에서 직거래 가능합니다.,디지털기기,29000,봉천동,37.48684928166759,126.94222683759477,2026-05-31 22:55:03,606,97,6
299,선풍기 사용감 적어요,상도동 인근에서 거래 원합니다. 선풍기 필요하신 분 연락 주세요.,생활가전,59000,상도동,37.49632199728157,126.93002973958431,2026-05-16 01:56:03,633,60,2
300,통기타 판매합니다,상도동 인근에서 거래 원합니다. 통기타 필요하신 분 연락 주세요.,게임/취미,151000,상도동,37.49480232888593,126.93417385925305,2026-06-03 18:02:03,952,34,23
301,토익 교재 거의 새상품입니다,흑석동에서 거래 가능한 토익 교재입니다. 상태 좋고 빠른 거래 원합니다.,도서,12000,흑석동,37.506494199810085,126.96276772727705,2026-06-01 07:45:03,463,99,20
302,공기청정기 이사 정리합니다,집 정리하면서 공기청정기 내놓습니다. 청룡동에서 직거래 가능합니다.,생활가전,288000,청룡동,37.48411490392081,126.94835616967612,2026-05-12 00:37:03,392,7,32
303,멀티탭 상태 좋아요,멀티탭 판매합니다. 신림동 근처 직거래 가능하고 사용감은 적은 편입니다.,생활용품,9000,신림동,37.483764486671284,126.93318031069342,2026-05-08 10:39:03,69,31,2
304,슬랙스 사용감 적어요,슬랙스 상태 양호합니다. 흑석동 근처에서 시간 맞춰 거래 가능합니다.,의류,35000,흑석동,37.50868786739067,126.96306103432607,2026-05-16 13:49:03,41,30,23
305,목줄 사용감 적어요,목줄 판매합니다. 사당동 근처 직거래 가능하고 사용감은 적은 편입니다.,반려동물용품,29000,사당동,37.47445069376435,126.98046565670741,2026-05-08 08:45:03,860,88,5
306,수납장 급처합니다,수납장 판매합니다. 청룡동 근처 직거래 가능하고 사용감은 적은 편입니다.,가구/인테리어,72000,청룡동,37.48587138355729,126.95452199731535,2026-05-27 21:06:03,535,2,49
307,스크래쳐 상태 좋아요,스크래쳐 상태 양호합니다. 낙성대동 근처에서 시간 맞춰 거래 가능합니다.,반려동물용품,56000,낙성대동,37.48147024443368,126.9600274031129,2026-06-05 10:16:03,632,39,45
308,아기띠 필요하신 분 가져가세요,집 정리하면서 아기띠 내놓습니다. 사당동에서 직거래 가능합니다.,유아용품,84000,사당동,37.47557152539972,126.97762312102968,2026-05-30 03:13:03,703,66,39
309,공구 세트 거의 새상품입니다,대학동에서 거래 가능한 공구 세트입니다. 상태 좋고 빠른 거래 원합니다.,생활용품,71000,대학동,37.468211469079264,126.93891093775572,2026-06-03 07:15:03,665,41,17
310,정보처리기사 교재 상태 좋아요,청룡동에서 거래 가능한 정보처리기사 교재입니다. 상태 좋고 빠른 거래 원합니다.,도서,35000,청룡동,37.47759929508577,126.9479545527112,2026-05-08 22:07:03,686,40,43
311,반려동물 이동장 거의 새상품입니다,집 정리하면서 반려동물 이동장 내놓습니다. 상도동에서 직거래 가능합니다.,반려동물용품,59000,상도동,37.49803167049636,126.93313369289207,2026-05-13 15:55:03,735,73,12
312,담요 사용감 적어요,담요 판매합니다. 대학동 근처 직거래 가능하고 사용감은 적은 편입니다.,생활용품,47000,대학동,37.466879441396955,126.9343865185056,2026-05-08 00:21:03,310,12,30
313,청소도구 세트 사용감 적어요,청소도구 세트 판매합니다. 봉천동 근처 직거래 가능하고 사용감은 적은 편입니다.,생활용품,27000,봉천동,37.48646843549693,126.94031682429764,2026-05-28 17:37:03,324,53,50
314,입문용 드론 이사 정리합니다,집 정리하면서 입문용 드론 내놓습니다. 봉천동에서 직거래 가능합니다.,게임/취미,43000,봉천동,37.48232219682406,126.93854543804976,2026-05-08 20:55:03,604,79,4
315,헤어드라이기 거의 새상품입니다,상도동에서 거래 가능한 헤어드라이기입니다. 상태 좋고 빠른 거래 원합니다.,생활가전,24000,상도동,37.496032241523,126.93462393943337,2026-06-01 11:11:03,429,72,29
316,게이밍 의자 이사 정리합니다,게이밍 의자 판매합니다. 사당동 근처 직거래 가능하고 사용감은 적은 편입니다.,가구/인테리어,120000,사당동,37.47921193281215,126.97828605756582,2026-05-16 16:32:03,472,35,13
317,협탁 저렴하게 내놓습니다,협탁 상태 양호합니다. 낙성대동 근처에서 시간 맞춰 거래 가능합니다.,가구/인테리어,65000,낙성대동,37.471846691375795,126.95893782602843,2026-05-16 04:07:03,449,61,24
318,요가매트 사용감 적어요,청룡동에서 거래 가능한 요가매트입니다. 상태 좋고 빠른 거래 원합니다.,스포츠/레저,5000,청룡동,37.47932092260487,126.94872708223339,2026-05-15 18:17:03,241,88,22
319,수건 세트 거의 새상품입니다,낙성대동에서 거래 가능한 수건 세트입니다. 상태 좋고 빠른 거래 원합니다.,생활용품,7000,낙성대동,37.47704117643668,126.95793665230036,2026-05-27 08:03:03,755,66,38
320,스탠드 조명 이사 정리합니다,스탠드 조명 판매합니다. 사당동 근처 직거래 가능하고 사용감은 적은 편입니다.,가구/인테리어,31000,사당동,37.48144879524493,126.97871190229164,2026-05-06 05:31:03,243,28,46
321,맥북 에어 상태 좋아요,봉천동 인근에서 거래 원합니다. 맥북 에어 필요하신 분 연락 주세요.,디지털기기,1166000,봉천동,37.48531249663343,126.94283134777311,2026-05-11 16:08:03,907,81,16
322,플스5 게임 타이틀 저렴하게 내놓습니다,신림동에서 거래 가능한 플스5 게임 타이틀입니다. 상태 좋고 빠른 거래 원합니다.,게임/취미,64000,신림동,37.4817273829307,126.93101868214855,2026-06-02 04:04:03,399,15,35
323,롱패딩 거의 새상품입니다,상도동에서 거래 가능한 롱패딩입니다. 상태 좋고 빠른 거래 원합니다.,의류,199000,상도동,37.49878825751772,126.93498621925004,2026-05-20 08:53:03,630,89,8
324,수납 박스 거의 새상품입니다,봉천동에서 거래 가능한 수납 박스입니다. 상태 좋고 빠른 거래 원합니다.,생활용품,34000,봉천동,37.48733119722319,126.9401792183655,2026-05-29 22:20:03,806,33,33
325,분유포트 상태 좋아요,분유포트 상태 양호합니다. 신림동 근처에서 시간 맞춰 거래 가능합니다.,유아용품,73000,신림동,37.48154505265972,126.9241274940127,2026-05-07 10:48:03,965,61,21
326,캡슐 커피머신 이사 정리합니다,낙성대동에서 거래 가능한 캡슐 커피머신입니다. 상태 좋고 빠른 거래 원합니다.,생활가전,160000,낙성대동,37.474111602864916,126.96348665930758,2026-06-02 17:46:03,113,32,41
327,토익 교재 이사 정리합니다,신림동에서 거래 가능한 토익 교재입니다. 상태 좋고 빠른 거래 원합니다.,도서,10000,신림동,37.482327071069626,126.93138540195793,2026-05-09 15:38:03,307,46,43
328,에어프라이어 판매합니다,에어프라이어 판매합니다. 낙성대동 근처 직거래 가능하고 사용감은 적은 편입니다.,생활가전,62000,낙성대동,37.47552622153274,126.95702722722761,2026-05-25 02:53:03,284,93,5
329,헤어드라이기 필요하신 분 가져가세요,흑석동 인근에서 거래 원합니다. 헤어드라이기 필요하신 분 연락 주세요.,생활가전,54000,흑석동,37.504930565563775,126.96556169873524,2026-05-14 01:41:03,441,83,10
330,아이패드 미니 저렴하게 내놓습니다,아이패드 미니 상태 양호합니다. 상도동 근처에서 시간 맞춰 거래 가능합니다.,디지털기기,497000,상도동,37.49839750779116,126.92958598914826,2026-05-10 22:49:03,458,23,39
331,USB 허브 상태 좋아요,집 정리하면서 USB 허브 내놓습니다. 흑석동에서 직거래 가능합니다.,디지털기기,12000,흑석동,37.510349735688735,126.95872360212987,2026-05-08 04:04:03,57,8,16
332,수건 세트 급처합니다,수건 세트 상태 양호합니다. 사당동 근처에서 시간 맞춰 거래 가능합니다.,생활용품,38000,사당동,37.47886651968424,126.98141929677321,2026-05-13 18:53:03,107,55,42
333,아기 침대 판매합니다,아기 침대 판매합니다. 신림동 근처 직거래 가능하고 사용감은 적은 편입니다.,유아용품,159000,신림동,37.486714300010476,126.92720633815534,2026-05-09 01:38:03,517,21,4
334,캠핑 의자 판매합니다,캠핑 의자 상태 양호합니다. 청룡동 근처에서 시간 맞춰 거래 가능합니다.,스포츠/레저,58000,청룡동,37.48068098585666,126.95626589224177,2026-05-24 10:27:03,480,56,36
335,강아지 옷 저렴하게 내놓습니다,흑석동에서 거래 가능한 강아지 옷입니다. 상태 좋고 빠른 거래 원합니다.,반려동물용품,11000,흑석동,37.512059087584234,126.96651783285172,2026-05-24 04:30:03,580,70,0
336,입문용 드론 급처합니다,흑석동 인근에서 거래 원합니다. 입문용 드론 필요하신 분 연락 주세요.,게임/취미,123000,흑석동,37.50940150845106,126.96479757969676,2026-05-10 15:40:03,238,58,21
337,사료 보관통 사용감 적어요,흑석동에서 거래 가능한 사료 보관통입니다. 상태 좋고 빠른 거래 원합니다.,반려동물용품,11000,흑석동,37.512098838856346,126.96824433683454,2026-05-11 20:18:03,12,43,22
338,소설책 세트 사용감 적어요,봉천동에서 거래 가능한 소설책 세트입니다. 상태 좋고 빠른 거래 원합니다.,도서,20000,봉천동,37.48169210757218,126.9391428931125,2026-05-21 12:40:03,744,95,46
339,체크 셔츠 저렴하게 내놓습니다,체크 셔츠 판매합니다. 상도동 근처 직거래 가능하고 사용감은 적은 편입니다.,의류,37000,상도동,37.49874470345129,126.93526626530537,2026-05-10 10:47:03,356,13,48
340,Xbox 컨트롤러 이사 정리합니다,Xbox 컨트롤러 상태 양호합니다. 흑석동 근처에서 시간 맞춰 거래 가능합니다.,게임/취미,94000,흑석동,37.509332263289046,126.96292810379853,2026-06-01 02:32:03,553,94,3
341,그림 도구 상태 좋아요,그림 도구 판매합니다. 낙성대동 근처 직거래 가능하고 사용감은 적은 편입니다.,게임/취미,18000,낙성대동,37.48061390567009,126.95778664745833,2026-05-23 19:54:03,630,41,32
342,피규어 거의 새상품입니다,상도동 인근에서 거래 원합니다. 피규어 필요하신 분 연락 주세요.,게임/취미,85000,상도동,37.50346436855409,126.93112294622502,2026-05-22 13:24:03,432,77,44
343,장우산 급처합니다,장우산 판매합니다. 청룡동 근처 직거래 가능하고 사용감은 적은 편입니다.,생활용품,22000,청룡동,37.48601335496235,126.95420086387806,2026-05-14 07:49:03,363,86,8
344,화장대 사용감 적어요,봉천동 인근에서 거래 원합니다. 화장대 필요하신 분 연락 주세요.,가구/인테리어,173000,봉천동,37.48177477933125,126.94407868723376,2026-05-20 22:56:03,975,85,45
345,도시락통 필요하신 분 가져가세요,도시락통 상태 양호합니다. 신림동 근처에서 시간 맞춰 거래 가능합니다.,생활용품,6000,신림동,37.481199024172646,126.9315018501867,2026-06-05 05:23:03,64,85,3
346,원목 식탁 거의 새상품입니다,낙성대동에서 거래 가능한 원목 식탁입니다. 상태 좋고 빠른 거래 원합니다.,가구/인테리어,201000,낙성대동,37.4779610883376,126.9603552601352,2026-05-30 00:30:03,377,57,6
347,화장품 정리함 필요하신 분 가져가세요,화장품 정리함 상태 양호합니다. 청룡동 근처에서 시간 맞춰 거래 가능합니다.,생활용품,49000,청룡동,37.48036566237485,126.95558111530063,2026-05-26 18:50:03,58,48,24
348,농구공 판매합니다,신림동 인근에서 거래 원합니다. 농구공 필요하신 분 연락 주세요.,스포츠/레저,17000,신림동,37.48629545453248,126.92767741121017,2026-05-17 02:39:03,240,81,45
349,퍼즐 급처합니다,청룡동 인근에서 거래 원합니다. 퍼즐 필요하신 분 연락 주세요.,게임/취미,17000,청룡동,37.481338468527746,126.95147198227052,2026-05-30 20:28:03,201,22,47
350,분유포트 거의 새상품입니다,분유포트 판매합니다. 낙성대동 근처 직거래 가능하고 사용감은 적은 편입니다.,유아용품,42000,낙성대동,37.47333703383569,126.95682630029894,2026-06-05 07:03:03,736,19,2
351,와이파이 공유기 거의 새상품입니다,와이파이 공유기 상태 양호합니다. 흑석동 근처에서 시간 맞춰 거래 가능합니다.,디지털기기,80000,흑석동,37.50599962015428,126.96043869097535,2026-05-25 14:42:03,734,40,33
352,미니 냉장고 상태 좋아요,미니 냉장고 상태 양호합니다. 상도동 근처에서 시간 맞춰 거래 가능합니다.,생활가전,187000,상도동,37.497918835149044,126.92960797824662,2026-05-24 15:10:03,236,27,42
353,볼캡 이사 정리합니다,신림동에서 거래 가능한 볼캡입니다. 상태 좋고 빠른 거래 원합니다.,의류,47000,신림동,37.48838607299187,126.92643827163867,2026-05-25 03:17:03,936,82,39
354,USB 허브 사용감 적어요,상도동에서 거래 가능한 USB 허브입니다. 상태 좋고 빠른 거래 원합니다.,디지털기기,29000,상도동,37.5028210906424,126.92974958042161,2026-05-27 23:46:03,299,3,33
355,방향제 이사 정리합니다,신림동 인근에서 거래 원합니다. 방향제 필요하신 분 연락 주세요.,생활용품,23000,신림동,37.48891628769906,126.93173318518237,2026-05-30 07:00:03,94,12,10
356,식기 세트 저렴하게 내놓습니다,식기 세트 판매합니다. 청룡동 근처 직거래 가능하고 사용감은 적은 편입니다.,생활용품,59000,청룡동,37.48395206740463,126.95416561159318,2026-05-10 14:19:03,560,89,47
357,믹서기 판매합니다,흑석동 인근에서 거래 원합니다. 믹서기 필요하신 분 연락 주세요.,생활가전,14000,흑석동,37.50450442092232,126.96681619318632,2026-06-03 15:29:03,192,32,35
358,경제경영 도서 필요하신 분 가져가세요,집 정리하면서 경제경영 도서 내놓습니다. 흑석동에서 직거래 가능합니다.,도서,18000,흑석동,37.50385898927461,126.96580285681027,2026-05-26 17:08:03,699,15,34
359,인덕션 판매합니다,봉천동 인근에서 거래 원합니다. 인덕션 필요하신 분 연락 주세요.,생활가전,158000,봉천동,37.478465052214375,126.9442527424102,2026-06-02 07:42:03,712,38,38
360,고양이 장난감 필요하신 분 가져가세요,집 정리하면서 고양이 장난감 내놓습니다. 신림동에서 직거래 가능합니다.,반려동물용품,8000,신림동,37.48717484612833,126.9294572446864,2026-05-19 10:24:03,774,50,50
361,원목 식탁 사용감 적어요,원목 식탁 상태 양호합니다. 신림동 근처에서 시간 맞춰 거래 가능합니다.,가구/인테리어,334000,신림동,37.4831408170087,126.92947525450192,2026-06-01 14:30:03,15,73,38
362,선풍기 급처합니다,선풍기 판매합니다. 사당동 근처 직거래 가능하고 사용감은 적은 편입니다.,생활가전,62000,사당동,37.47343992722785,126.9827688492324,2026-05-07 20:38:03,534,18,10
363,정보처리기사 교재 저렴하게 내놓습니다,정보처리기사 교재 상태 양호합니다. 낙성대동 근처에서 시간 맞춰 거래 가능합니다.,도서,11000,낙성대동,37.4747065266752,126.95427362757405,2026-05-09 00:03:03,670,70,4
364,공기청정기 이사 정리합니다,사당동 인근에서 거래 원합니다. 공기청정기 필요하신 분 연락 주세요.,생활가전,105000,사당동,37.472298088847104,126.97853498569114,2026-05-14 21:17:03,112,36,39
365,강아지 장난감 사용감 적어요,강아지 장난감 상태 양호합니다. 대학동 근처에서 시간 맞춰 거래 가능합니다.,반려동물용품,7000,대학동,37.467286395109056,126.93493214780734,2026-05-17 23:09:03,837,40,27
366,반팔 티셔츠 거의 새상품입니다,반팔 티셔츠 판매합니다. 사당동 근처 직거래 가능하고 사용감은 적은 편입니다.,의류,26000,사당동,37.47465471796445,126.98211671826161,2026-05-08 02:03:03,466,45,49
367,벽 선반 저렴하게 내놓습니다,벽 선반 판매합니다. 대학동 근처 직거래 가능하고 사용감은 적은 편입니다.,가구/인테리어,39000,대학동,37.47287425367202,126.94072105184635,2026-05-30 08:46:03,917,80,4
368,식기 세트 필요하신 분 가져가세요,청룡동에서 거래 가능한 식기 세트입니다. 상태 좋고 빠른 거래 원합니다.,생활용품,75000,청룡동,37.483951972388375,126.95135818630102,2026-05-27 23:35:03,562,60,41
369,백팩 거의 새상품입니다,집 정리하면서 백팩 내놓습니다. 낙성대동에서 직거래 가능합니다.,의류,74000,낙성대동,37.478426784893784,126.96207981840104,2026-05-20 15:07:03,382,64,0
370,보드게임 상태 좋아요,보드게임 판매합니다. 흑석동 근처 직거래 가능하고 사용감은 적은 편입니다.,게임/취미,27000,흑석동,37.51112004474726,126.9679917525827,2026-05-17 22:50:03,903,18,47
371,갤럭시탭 이사 정리합니다,청룡동에서 거래 가능한 갤럭시탭입니다. 상태 좋고 빠른 거래 원합니다.,디지털기기,285000,청룡동,37.485277260925734,126.95131251364559,2026-05-25 10:30:03,694,26,33
372,스크래쳐 이사 정리합니다,신림동에서 거래 가능한 스크래쳐입니다. 상태 좋고 빠른 거래 원합니다.,반려동물용품,46000,신림동,37.487548722662176,126.92663316069384,2026-05-26 13:47:03,543,81,17
373,수건 세트 상태 좋아요,집 정리하면서 수건 세트 내놓습니다. 상도동에서 직거래 가능합니다.,생활용품,28000,상도동,37.49711586410227,126.9357267410835,2026-05-17 20:35:03,865,9,33
374,로퍼 필요하신 분 가져가세요,사당동 인근에서 거래 원합니다. 로퍼 필요하신 분 연락 주세요.,의류,77000,사당동,37.480420342431884,126.98099898700755,2026-05-11 01:36:03,628,0,32
375,블루종 자켓 거의 새상품입니다,블루종 자켓 판매합니다. 청룡동 근처 직거래 가능하고 사용감은 적은 편입니다.,의류,67000,청룡동,37.47850346332599,126.95581172629372,2026-05-31 05:54:03,744,15,42
376,전기장판 이사 정리합니다,전기장판 판매합니다. 흑석동 근처 직거래 가능하고 사용감은 적은 편입니다.,생활가전,30000,흑석동,37.50953486511352,126.96021129140368,2026-05-16 04:31:03,259,5,8
377,냄비 세트 상태 좋아요,냄비 세트 판매합니다. 신림동 근처 직거래 가능하고 사용감은 적은 편입니다.,생활용품,76000,신림동,37.488892436871204,126.93037622706731,2026-05-07 11:59:03,991,51,38
378,자바 기본서 급처합니다,자바 기본서 상태 양호합니다. 흑석동 근처에서 시간 맞춰 거래 가능합니다.,도서,23000,흑석동,37.50522712137063,126.96442646137628,2026-05-09 02:22:03,234,52,38
379,벽 선반 거의 새상품입니다,낙성대동 인근에서 거래 원합니다. 벽 선반 필요하신 분 연락 주세요.,가구/인테리어,34000,낙성대동,37.473122131984574,126.95376562627274,2026-05-16 23:28:03,245,48,24
380,쿠션 필요하신 분 가져가세요,쿠션 상태 양호합니다. 낙성대동 근처에서 시간 맞춰 거래 가능합니다.,생활용품,11000,낙성대동,37.480577526377424,126.95891429950173,2026-05-31 01:35:03,639,76,2
381,전기포트 이사 정리합니다,전기포트 상태 양호합니다. 낙성대동 근처에서 시간 맞춰 거래 가능합니다.,생활가전,39000,낙성대동,37.47829231735106,126.95882044229661,2026-05-10 16:35:03,970,99,43
382,덤벨 세트 필요하신 분 가져가세요,집 정리하면서 덤벨 세트 내놓습니다. 청룡동에서 직거래 가능합니다.,스포츠/레저,111000,청룡동,37.484571905140335,126.95346120816899,2026-05-12 05:10:03,613,94,48
383,아기 침대 거의 새상품입니다,아기 침대 판매합니다. 흑석동 근처 직거래 가능하고 사용감은 적은 편입니다.,유아용품,249000,흑석동,37.50637804976322,126.95865469454148,2026-06-03 07:54:03,907,69,26
384,맥북 에어 저렴하게 내놓습니다,집 정리하면서 맥북 에어 내놓습니다. 신림동에서 직거래 가능합니다.,디지털기기,1170000,신림동,37.4802658321645,126.9282607158908,2026-05-29 18:41:03,333,52,23
385,프라모델 거의 새상품입니다,프라모델 상태 양호합니다. 상도동 근처에서 시간 맞춰 거래 가능합니다.,게임/취미,103000,상도동,37.49873228158296,126.93383788416963,2026-05-17 08:49:03,416,96,13
386,고양이 화장실 사용감 적어요,흑석동 인근에서 거래 원합니다. 고양이 화장실 필요하신 분 연락 주세요.,반려동물용품,49000,흑석동,37.50518068518453,126.96723830526615,2026-05-18 05:43:03,732,50,47
387,가습기 이사 정리합니다,낙성대동에서 거래 가능한 가습기입니다. 상태 좋고 빠른 거래 원합니다.,생활가전,37000,낙성대동,37.47877057408724,126.96066789933533,2026-05-20 04:42:03,356,70,39
388,암막 커튼 판매합니다,암막 커튼 판매합니다. 봉천동 근처 직거래 가능하고 사용감은 적은 편입니다.,가구/인테리어,70000,봉천동,37.47981770244619,126.93740039736696,2026-05-06 22:05:03,100,8,16
389,보조배터리 필요하신 분 가져가세요,보조배터리 상태 양호합니다. 상도동 근처에서 시간 맞춰 거래 가능합니다.,디지털기기,46000,상도동,37.504057158578455,126.93420228734428,2026-05-20 07:47:03,996,76,3
390,강아지 장난감 판매합니다,강아지 장난감 상태 양호합니다. 청룡동 근처에서 시간 맞춰 거래 가능합니다.,반려동물용품,12000,청룡동,37.48318449732599,126.95385189985703,2026-05-30 15:42:03,623,65,33
391,갤럭시 버즈 급처합니다,갤럭시 버즈 판매합니다. 신림동 근처 직거래 가능하고 사용감은 적은 편입니다.,디지털기기,51000,신림동,37.4850608016521,126.92917742700989,2026-05-28 05:10:03,695,50,25
392,전기포트 거의 새상품입니다,사당동 인근에서 거래 원합니다. 전기포트 필요하신 분 연락 주세요.,생활가전,22000,사당동,37.47164651451566,126.97835034786814,2026-05-28 22:20:03,475,51,36
393,수납 박스 저렴하게 내놓습니다,대학동 인근에서 거래 원합니다. 수납 박스 필요하신 분 연락 주세요.,생활용품,10000,대학동,37.471348938787735,126.93874191861472,2026-05-11 01:16:03,907,68,50
394,아기 신발 이사 정리합니다,청룡동 인근에서 거래 원합니다. 아기 신발 필요하신 분 연락 주세요.,유아용품,34000,청룡동,37.47736268301441,126.94837554260661,2026-05-15 02:35:03,610,3,30
395,청바지 사용감 적어요,상도동 인근에서 거래 원합니다. 청바지 필요하신 분 연락 주세요.,의류,43000,상도동,37.49747289582886,126.92998930636597,2026-05-19 16:48:03,862,33,15
396,아령 상태 좋아요,흑석동 인근에서 거래 원합니다. 아령 필요하신 분 연락 주세요.,스포츠/레저,27000,흑석동,37.513102552633725,126.96050167497836,2026-05-29 23:15:03,197,95,43
397,청바지 급처합니다,청바지 판매합니다. 대학동 근처 직거래 가능하고 사용감은 적은 편입니다.,의류,24000,대학동,37.47338938480516,126.93299878492655,2026-05-30 09:39:03,643,45,9
398,전기장판 판매합니다,집 정리하면서 전기장판 내놓습니다. 신림동에서 직거래 가능합니다.,생활가전,57000,신림동,37.48410805351607,126.93384394682678,2026-05-17 07:01:03,929,73,17
399,텀블러 필요하신 분 가져가세요,텀블러 상태 양호합니다. 청룡동 근처에서 시간 맞춰 거래 가능합니다.,생활용품,11000,청룡동,37.476525626470334,126.95117288961661,2026-06-04 00:41:03,443,61,34
400,옷장 저렴하게 내놓습니다,흑석동 인근에서 거래 원합니다. 옷장 필요하신 분 연락 주세요.,가구/인테리어,226000,흑석동,37.5048074782614,126.96221602325832,2026-06-05 16:49:03,225,48,37
401,베스트셀러 소설 거의 새상품입니다,청룡동 인근에서 거래 원합니다. 베스트셀러 소설 필요하신 분 연락 주세요.,도서,12000,청룡동,37.48043942880411,126.95189092943524,2026-05-05 22:11:03,384,23,31
402,침낭 필요하신 분 가져가세요,집 정리하면서 침낭 내놓습니다. 대학동에서 직거래 가능합니다.,스포츠/레저,61000,대학동,37.47280815459415,126.93984087581008,2026-05-18 12:56:03,712,29,6
403,디퓨저 필요하신 분 가져가세요,디퓨저 판매합니다. 청룡동 근처 직거래 가능하고 사용감은 적은 편입니다.,생활용품,14000,청룡동,37.486155617703,126.95619389915396,2026-05-21 17:21:03,441,63,8
404,베개 사용감 적어요,흑석동 인근에서 거래 원합니다. 베개 필요하신 분 연락 주세요.,생활용품,21000,흑석동,37.50543341880292,126.96075467324955,2026-05-18 23:29:03,417,12,44
405,자기계발서 저렴하게 내놓습니다,흑석동 인근에서 거래 원합니다. 자기계발서 필요하신 분 연락 주세요.,도서,13000,흑석동,37.50399835333614,126.95981237489217,2026-05-25 05:57:03,580,32,22
406,레고 세트 상태 좋아요,대학동 인근에서 거래 원합니다. 레고 세트 필요하신 분 연락 주세요.,게임/취미,186000,대학동,37.474496324491376,126.93561070998413,2026-05-15 01:01:03,803,94,28
407,자기계발서 상태 좋아요,낙성대동 인근에서 거래 원합니다. 자기계발서 필요하신 분 연락 주세요.,도서,18000,낙성대동,37.47341999488947,126.95588217939388,2026-05-15 21:56:03,424,9,5
408,캠핑 테이블 거의 새상품입니다,상도동 인근에서 거래 원합니다. 캠핑 테이블 필요하신 분 연락 주세요.,스포츠/레저,133000,상도동,37.49873989060874,126.92783886199103,2026-05-12 05:45:03,611,66,28
409,갤럭시 S23 급처합니다,대학동에서 거래 가능한 갤럭시 S23입니다. 상태 좋고 빠른 거래 원합니다.,디지털기기,557000,대학동,37.47108433743818,126.93206364913367,2026-05-31 05:26:03,107,8,30
410,아기 옷 세트 저렴하게 내놓습니다,봉천동 인근에서 거래 원합니다. 아기 옷 세트 필요하신 분 연락 주세요.,유아용품,44000,봉천동,37.47989355955477,126.94397593228251,2026-06-01 14:51:03,963,49,19
411,하네스 상태 좋아요,하네스 상태 양호합니다. 낙성대동 근처에서 시간 맞춰 거래 가능합니다.,반려동물용품,15000,낙성대동,37.47647193476669,126.96230898273144,2026-06-05 15:50:03,375,41,30
412,소설책 세트 이사 정리합니다,소설책 세트 상태 양호합니다. 낙성대동 근처에서 시간 맞춰 거래 가능합니다.,도서,21000,낙성대동,37.48057293710142,126.9579497737142,2026-05-17 22:03:03,656,95,40
413,도시락통 사용감 적어요,도시락통 상태 양호합니다. 흑석동 근처에서 시간 맞춰 거래 가능합니다.,생활용품,10000,흑석동,37.50639807043938,126.96163572915573,2026-05-11 15:04:03,325,46,26
414,게이밍 모니터 상태 좋아요,사당동 인근에서 거래 원합니다. 게이밍 모니터 필요하신 분 연락 주세요.,디지털기기,320000,사당동,37.47637067070451,126.97669132599576,2026-05-19 16:48:03,954,62,48
415,놀이매트 거의 새상품입니다,청룡동에서 거래 가능한 놀이매트입니다. 상태 좋고 빠른 거래 원합니다.,유아용품,115000,청룡동,37.47869896117771,126.95484937982984,2026-05-30 03:36:03,584,55,25
416,아기 그림책 필요하신 분 가져가세요,청룡동 인근에서 거래 원합니다. 아기 그림책 필요하신 분 연락 주세요.,유아용품,7000,청룡동,37.484275749404276,126.95454640290377,2026-05-22 21:17:03,539,97,39
417,인문교양서 거의 새상품입니다,인문교양서 판매합니다. 상도동 근처 직거래 가능하고 사용감은 적은 편입니다.,도서,7000,상도동,37.50077729413903,126.92872134130451,2026-05-31 13:14:03,123,81,29
418,그림 도구 급처합니다,사당동에서 거래 가능한 그림 도구입니다. 상태 좋고 빠른 거래 원합니다.,게임/취미,24000,사당동,37.47429195132889,126.98375195942211,2026-06-04 00:31:03,200,13,18
419,갤럭시탭 저렴하게 내놓습니다,낙성대동에서 거래 가능한 갤럭시탭입니다. 상태 좋고 빠른 거래 원합니다.,디지털기기,402000,낙성대동,37.48177963446165,126.95823684467204,2026-05-30 07:06:03,329,100,31
420,에어팟 프로 저렴하게 내놓습니다,낙성대동에서 거래 가능한 에어팟 프로입니다. 상태 좋고 빠른 거래 원합니다.,디지털기기,158000,낙성대동,37.473721922929265,126.96201539287941,2026-05-12 05:28:03,566,60,11
421,아기 그림책 판매합니다,아기 그림책 판매합니다. 봉천동 근처 직거래 가능하고 사용감은 적은 편입니다.,유아용품,17000,봉천동,37.48220834635312,126.9443099596779,2026-05-12 03:17:03,765,4,12
422,욕실 선반 이사 정리합니다,상도동 인근에서 거래 원합니다. 욕실 선반 필요하신 분 연락 주세요.,생활용품,25000,상도동,37.499809262529176,126.92853312740336,2026-05-30 20:46:03,53,95,35
423,정보처리기사 교재 사용감 적어요,정보처리기사 교재 판매합니다. 신림동 근처 직거래 가능하고 사용감은 적은 편입니다.,도서,13000,신림동,37.48714390397341,126.92984696860013,2026-05-28 21:05:03,342,1,10
424,놀이매트 급처합니다,신림동에서 거래 가능한 놀이매트입니다. 상태 좋고 빠른 거래 원합니다.,유아용품,141000,신림동,37.48168722256405,126.92899919206585,2026-05-13 22:23:03,390,98,5
425,카메라 삼각대 판매합니다,신림동 인근에서 거래 원합니다. 카메라 삼각대 필요하신 분 연락 주세요.,게임/취미,92000,신림동,37.48407842881923,126.92716739559037,2026-05-31 18:58:03,820,13,8
426,공구 세트 이사 정리합니다,청룡동에서 거래 가능한 공구 세트입니다. 상태 좋고 빠른 거래 원합니다.,생활용품,98000,청룡동,37.481053021331626,126.95207500004165,2026-05-24 05:46:03,147,32,2
427,소설책 세트 이사 정리합니다,소설책 세트 상태 양호합니다. 청룡동 근처에서 시간 맞춰 거래 가능합니다.,도서,21000,청룡동,37.484876618399575,126.95368679944235,2026-05-19 06:12:03,759,59,17
428,청소도구 세트 저렴하게 내놓습니다,집 정리하면서 청소도구 세트 내놓습니다. 낙성대동에서 직거래 가능합니다.,생활용품,23000,낙성대동,37.47955917907342,126.95865957732939,2026-05-10 08:58:03,385,58,0
429,컴퓨터 책상 사용감 적어요,청룡동 인근에서 거래 원합니다. 컴퓨터 책상 필요하신 분 연락 주세요.,가구/인테리어,36000,청룡동,37.483032241825576,126.95535734095509,2026-05-14 23:40:03,406,24,33
430,벽 선반 거의 새상품입니다,집 정리하면서 벽 선반 내놓습니다. 사당동에서 직거래 가능합니다.,가구/인테리어,46000,사당동,37.472037772634266,126.98597799536658,2026-05-26 14:26:03,545,84,4
431,사무용 의자 급처합니다,집 정리하면서 사무용 의자 내놓습니다. 봉천동에서 직거래 가능합니다.,가구/인테리어,69000,봉천동,37.482499096379115,126.94283970483998,2026-06-02 15:56:03,667,49,42
432,프라모델 판매합니다,프라모델 판매합니다. 사당동 근처 직거래 가능하고 사용감은 적은 편입니다.,게임/취미,28000,사당동,37.479610199490104,126.97720700188286,2026-06-05 10:51:03,513,10,29
433,디퓨저 사용감 적어요,디퓨저 상태 양호합니다. 신림동 근처에서 시간 맞춰 거래 가능합니다.,생활용품,22000,신림동,37.48864603482007,126.93360586745438,2026-05-20 15:46:03,82,38,4
434,캡슐 커피머신 급처합니다,캡슐 커피머신 판매합니다. 상도동 근처 직거래 가능하고 사용감은 적은 편입니다.,생활가전,79000,상도동,37.50018423480013,126.9315814160716,2026-05-19 20:17:03,593,80,11
435,인덕션 사용감 적어요,집 정리하면서 인덕션 내놓습니다. 흑석동에서 직거래 가능합니다.,생활가전,56000,흑석동,37.51037531881021,126.9639390047698,2026-05-31 11:57:03,421,64,21
436,디지털 피아노 사용감 적어요,디지털 피아노 상태 양호합니다. 사당동 근처에서 시간 맞춰 거래 가능합니다.,게임/취미,432000,사당동,37.4798615497504,126.97983450920049,2026-05-09 06:06:03,792,81,27
437,백팩 급처합니다,백팩 상태 양호합니다. 상도동 근처에서 시간 맞춰 거래 가능합니다.,의류,105000,상도동,37.50186313278338,126.93582956471178,2026-05-28 06:04:03,468,50,0
438,닌텐도 스위치 상태 좋아요,대학동에서 거래 가능한 닌텐도 스위치입니다. 상태 좋고 빠른 거래 원합니다.,게임/취미,256000,대학동,37.47381939922447,126.9386971918391,2026-05-29 10:38:03,332,2,49
439,머신러닝 입문서 상태 좋아요,봉천동에서 거래 가능한 머신러닝 입문서입니다. 상태 좋고 빠른 거래 원합니다.,도서,24000,봉천동,37.480098569058846,126.93916243838451,2026-05-25 13:24:03,281,46,37
440,자바 기본서 필요하신 분 가져가세요,청룡동에서 거래 가능한 자바 기본서입니다. 상태 좋고 빠른 거래 원합니다.,도서,18000,청룡동,37.48196232461777,126.95677655642146,2026-05-11 02:21:03,509,88,44
441,입문용 드론 판매합니다,상도동에서 거래 가능한 입문용 드론입니다. 상태 좋고 빠른 거래 원합니다.,게임/취미,229000,상도동,37.50390246083944,126.92720540528519,2026-06-04 07:10:03,910,55,26
442,볼캡 판매합니다,상도동에서 거래 가능한 볼캡입니다. 상태 좋고 빠른 거래 원합니다.,의류,24000,상도동,37.49786831627655,126.93297768652594,2026-05-20 16:12:03,562,72,9
443,사무용 의자 필요하신 분 가져가세요,사무용 의자 상태 양호합니다. 흑석동 근처에서 시간 맞춰 거래 가능합니다.,가구/인테리어,167000,흑석동,37.507743224038784,126.95992189045371,2026-05-20 15:18:03,452,37,50
444,전기장판 판매합니다,상도동 인근에서 거래 원합니다. 전기장판 필요하신 분 연락 주세요.,생활가전,20000,상도동,37.50222032919637,126.93080922501976,2026-05-24 01:05:03,802,89,8
445,운동화 필요하신 분 가져가세요,운동화 상태 양호합니다. 청룡동 근처에서 시간 맞춰 거래 가능합니다.,의류,83000,청룡동,37.4830473797235,126.95346018237244,2026-05-29 15:15:03,805,55,20
446,고데기 필요하신 분 가져가세요,사당동 인근에서 거래 원합니다. 고데기 필요하신 분 연락 주세요.,생활가전,29000,사당동,37.47464818847546,126.98647651916964,2026-05-26 05:54:03,681,3,49
447,디지털 피아노 상태 좋아요,흑석동에서 거래 가능한 디지털 피아노입니다. 상태 좋고 빠른 거래 원합니다.,게임/취미,339000,흑석동,37.51232764145179,126.95972371740785,2026-05-29 20:09:03,169,96,46
448,갤럭시탭 상태 좋아요,대학동에서 거래 가능한 갤럭시탭입니다. 상태 좋고 빠른 거래 원합니다.,디지털기기,325000,대학동,37.46891876719065,126.93920012985006,2026-05-14 14:13:03,470,60,1
449,체크 셔츠 거의 새상품입니다,체크 셔츠 상태 양호합니다. 흑석동 근처에서 시간 맞춰 거래 가능합니다.,의류,17000,흑석동,37.512860402860014,126.9638679909053,2026-05-13 18:50:03,28,48,37
450,베스트셀러 소설 판매합니다,베스트셀러 소설 판매합니다. 대학동 근처 직거래 가능하고 사용감은 적은 편입니다.,도서,17000,대학동,37.475051764822624,126.93246597792422,2026-05-13 22:15:03,64,59,41
451,인문교양서 사용감 적어요,봉천동에서 거래 가능한 인문교양서입니다. 상태 좋고 빠른 거래 원합니다.,도서,14000,봉천동,37.4873661193989,126.93759603711842,2026-05-08 21:08:03,246,48,32
452,테니스 라켓 저렴하게 내놓습니다,테니스 라켓 판매합니다. 낙성대동 근처 직거래 가능하고 사용감은 적은 편입니다.,스포츠/레저,138000,낙성대동,37.472197524032545,126.96282270115684,2026-05-06 02:57:03,958,91,1
453,컴퓨터활용능력 교재 이사 정리합니다,컴퓨터활용능력 교재 판매합니다. 상도동 근처 직거래 가능하고 사용감은 적은 편입니다.,도서,5000,상도동,37.49696204765707,126.93578244267245,2026-05-24 20:10:03,373,80,19
454,텀블러 판매합니다,집 정리하면서 텀블러 내놓습니다. 대학동에서 직거래 가능합니다.,생활용품,4000,대학동,37.47457175314969,126.9383693175895,2026-05-06 00:15:03,240,19,21
455,헤어드라이기 급처합니다,헤어드라이기 판매합니다. 상도동 근처 직거래 가능하고 사용감은 적은 편입니다.,생활가전,78000,상도동,37.49909169185327,126.92731772132268,2026-06-01 04:13:03,941,77,21
456,수납장 급처합니다,낙성대동 인근에서 거래 원합니다. 수납장 필요하신 분 연락 주세요.,가구/인테리어,54000,낙성대동,37.47497496210842,126.95917340298094,2026-05-23 12:51:03,965,72,10
457,토스터기 사용감 적어요,낙성대동에서 거래 가능한 토스터기입니다. 상태 좋고 빠른 거래 원합니다.,생활가전,28000,낙성대동,37.48113768524391,126.96254130093135,2026-05-08 04:06:03,320,56,47
458,베스트셀러 소설 급처합니다,베스트셀러 소설 판매합니다. 봉천동 근처 직거래 가능하고 사용감은 적은 편입니다.,도서,7000,봉천동,37.48372362021438,126.94256360692621,2026-06-04 21:53:03,283,77,36
459,롱패딩 사용감 적어요,집 정리하면서 롱패딩 내놓습니다. 봉천동에서 직거래 가능합니다.,의류,64000,봉천동,37.47943976477773,126.94047460287597,2026-05-19 22:02:03,739,83,23
460,고양이 화장실 상태 좋아요,고양이 화장실 판매합니다. 청룡동 근처 직거래 가능하고 사용감은 적은 편입니다.,반려동물용품,14000,청룡동,37.48362366661663,126.95758243417463,2026-05-23 16:33:03,286,52,14
461,블루종 자켓 상태 좋아요,블루종 자켓 상태 양호합니다. 흑석동 근처에서 시간 맞춰 거래 가능합니다.,의류,145000,흑석동,37.507848667682424,126.9590182627505,2026-05-14 06:37:03,478,31,27
462,아기 욕조 사용감 적어요,아기 욕조 상태 양호합니다. 상도동 근처에서 시간 맞춰 거래 가능합니다.,유아용품,41000,상도동,37.49498511973028,126.92709316292789,2026-05-16 23:59:03,666,90,50
463,배변패드 판매합니다,배변패드 상태 양호합니다. 청룡동 근처에서 시간 맞춰 거래 가능합니다.,반려동물용품,22000,청룡동,37.48385159872403,126.9573259231157,2026-05-23 18:30:03,581,49,33
464,운동복 세트 이사 정리합니다,상도동 인근에서 거래 원합니다. 운동복 세트 필요하신 분 연락 주세요.,의류,51000,상도동,37.50149952958502,126.93503675646649,2026-05-22 12:05:03,311,78,3
465,배변패드 이사 정리합니다,배변패드 상태 양호합니다. 봉천동 근처에서 시간 맞춰 거래 가능합니다.,반려동물용품,8000,봉천동,37.48153066714805,126.93983460932455,2026-05-30 22:35:03,722,69,8
466,아이패드 미니 이사 정리합니다,집 정리하면서 아이패드 미니 내놓습니다. 청룡동에서 직거래 가능합니다.,디지털기기,296000,청룡동,37.47783994027066,126.95503262331214,2026-05-28 06:48:03,674,91,50
467,캡슐 커피머신 이사 정리합니다,사당동에서 거래 가능한 캡슐 커피머신입니다. 상태 좋고 빠른 거래 원합니다.,생활가전,164000,사당동,37.481097538891426,126.98038678631413,2026-05-14 04:46:03,820,65,39
468,유모차 상태 좋아요,유모차 상태 양호합니다. 사당동 근처에서 시간 맞춰 거래 가능합니다.,유아용품,496000,사당동,37.479291567965745,126.97711310490217,2026-05-15 13:22:03,899,18,11
469,토익 교재 이사 정리합니다,토익 교재 판매합니다. 대학동 근처 직거래 가능하고 사용감은 적은 편입니다.,도서,8000,대학동,37.46813110975118,126.9363864265783,2026-05-08 13:20:03,13,79,48
470,반려동물 방석 판매합니다,반려동물 방석 판매합니다. 흑석동 근처 직거래 가능하고 사용감은 적은 편입니다.,반려동물용품,32000,흑석동,37.50459404917368,126.96460102104295,2026-05-17 20:02:03,474,52,28
471,토트백 거의 새상품입니다,청룡동에서 거래 가능한 토트백입니다. 상태 좋고 빠른 거래 원합니다.,의류,57000,청룡동,37.48473829287234,126.95436996542945,2026-06-01 15:51:03,367,4,9
472,입문용 드론 사용감 적어요,봉천동에서 거래 가능한 입문용 드론입니다. 상태 좋고 빠른 거래 원합니다.,게임/취미,57000,봉천동,37.484209246111774,126.94359846816025,2026-05-23 12:22:03,698,36,39
473,퍼즐 상태 좋아요,퍼즐 상태 양호합니다. 흑석동 근처에서 시간 맞춰 거래 가능합니다.,게임/취미,14000,흑석동,37.507485694254754,126.9623893935159,2026-05-07 16:27:03,796,38,20
474,고데기 저렴하게 내놓습니다,집 정리하면서 고데기 내놓습니다. 대학동에서 직거래 가능합니다.,생활가전,22000,대학동,37.46973757909273,126.93389845369279,2026-06-01 18:37:03,291,42,33
475,볼캡 판매합니다,볼캡 상태 양호합니다. 봉천동 근처에서 시간 맞춰 거래 가능합니다.,의류,45000,봉천동,37.48693891674788,126.94646278442343,2026-05-20 15:02:03,751,88,38
476,경제경영 도서 사용감 적어요,경제경영 도서 상태 양호합니다. 대학동 근처에서 시간 맞춰 거래 가능합니다.,도서,23000,대학동,37.47056396925447,126.93909184744,2026-05-17 05:33:03,142,78,36
477,강아지 장난감 상태 좋아요,청룡동 인근에서 거래 원합니다. 강아지 장난감 필요하신 분 연락 주세요.,반려동물용품,9000,청룡동,37.477379257239214,126.9561806978857,2026-06-05 14:31:03,486,80,50
478,우쿨렐레 필요하신 분 가져가세요,신림동 인근에서 거래 원합니다. 우쿨렐레 필요하신 분 연락 주세요.,게임/취미,64000,신림동,37.48610017061544,126.92654417522179,2026-05-18 21:19:03,21,81,12
479,선풍기 거의 새상품입니다,사당동에서 거래 가능한 선풍기입니다. 상태 좋고 빠른 거래 원합니다.,생활가전,24000,사당동,37.477759933429965,126.97689117381812,2026-05-15 07:11:03,415,92,36
480,싱글 매트리스 사용감 적어요,집 정리하면서 싱글 매트리스 내놓습니다. 사당동에서 직거래 가능합니다.,가구/인테리어,151000,사당동,37.47787200487708,126.9855205832679,2026-05-11 15:51:03,149,61,9
481,장우산 이사 정리합니다,상도동에서 거래 가능한 장우산입니다. 상태 좋고 빠른 거래 원합니다.,생활용품,29000,상도동,37.500151772083036,126.92618718430461,2026-05-20 07:56:03,752,86,20
482,카메라 삼각대 사용감 적어요,카메라 삼각대 판매합니다. 봉천동 근처 직거래 가능하고 사용감은 적은 편입니다.,게임/취미,45000,봉천동,37.486024057749354,126.94230981641155,2026-05-10 17:11:03,394,80,34
483,아기 침대 저렴하게 내놓습니다,대학동 인근에서 거래 원합니다. 아기 침대 필요하신 분 연락 주세요.,유아용품,211000,대학동,37.46931583576887,126.94009457468918,2026-06-04 09:06:03,98,63,15
484,정보처리기사 교재 거의 새상품입니다,낙성대동에서 거래 가능한 정보처리기사 교재입니다. 상태 좋고 빠른 거래 원합니다.,도서,21000,낙성대동,37.476859946926304,126.96159025278409,2026-05-11 15:43:03,216,11,28
485,빨래 건조대 급처합니다,집 정리하면서 빨래 건조대 내놓습니다. 사당동에서 직거래 가능합니다.,생활용품,38000,사당동,37.478367172887374,126.97792717156449,2026-05-27 07:23:03,797,12,33
486,게이밍 마우스 필요하신 분 가져가세요,봉천동에서 거래 가능한 게이밍 마우스입니다. 상태 좋고 빠른 거래 원합니다.,디지털기기,54000,봉천동,37.48093289753399,126.94549185875998,2026-05-07 15:49:03,878,76,5
487,미니 냉장고 거의 새상품입니다,미니 냉장고 상태 양호합니다. 신림동 근처에서 시간 맞춰 거래 가능합니다.,생활가전,244000,신림동,37.481125456396235,126.92676649538669,2026-05-26 20:35:03,224,41,12
488,배드민턴 라켓 저렴하게 내놓습니다,배드민턴 라켓 판매합니다. 대학동 근처 직거래 가능하고 사용감은 적은 편입니다.,스포츠/레저,25000,대학동,37.47074060661959,126.93386577379574,2026-05-28 14:32:03,991,79,35
489,농구공 사용감 적어요,농구공 판매합니다. 대학동 근처 직거래 가능하고 사용감은 적은 편입니다.,스포츠/레저,23000,대학동,37.47452243104716,126.93720577102033,2026-05-18 10:22:03,82,39,39
490,갤럭시 S23 판매합니다,흑석동에서 거래 가능한 갤럭시 S23입니다. 상태 좋고 빠른 거래 원합니다.,디지털기기,504000,흑석동,37.51084677593679,126.96751275894587,2026-05-24 16:27:03,446,50,11
491,목줄 사용감 적어요,대학동 인근에서 거래 원합니다. 목줄 필요하신 분 연락 주세요.,반려동물용품,29000,대학동,37.47533681888899,126.93935742935572,2026-05-29 18:44:03,696,68,5
492,목줄 상태 좋아요,집 정리하면서 목줄 내놓습니다. 봉천동에서 직거래 가능합니다.,반려동물용품,6000,봉천동,37.48225396564234,126.93891694213654,2026-05-22 07:49:03,669,90,49
493,맨투맨 거의 새상품입니다,집 정리하면서 맨투맨 내놓습니다. 사당동에서 직거래 가능합니다.,의류,21000,사당동,37.4764750673257,126.97725365198816,2026-05-13 20:11:03,817,41,29
494,로봇청소기 이사 정리합니다,로봇청소기 판매합니다. 흑석동 근처 직거래 가능하고 사용감은 적은 편입니다.,생활가전,224000,흑석동,37.50482932210309,126.96677552892226,2026-05-12 05:54:03,598,16,32
495,무선청소기 저렴하게 내놓습니다,무선청소기 상태 양호합니다. 대학동 근처에서 시간 맞춰 거래 가능합니다.,생활가전,276000,대학동,37.47107949017279,126.94153891731222,2026-05-23 23:06:03,254,79,15
496,카시트 사용감 적어요,카시트 상태 양호합니다. 청룡동 근처에서 시간 맞춰 거래 가능합니다.,유아용품,250000,청룡동,37.48314133156808,126.94943085456062,2026-05-11 03:56:03,816,43,34
497,인덕션 이사 정리합니다,인덕션 상태 양호합니다. 봉천동 근처에서 시간 맞춰 거래 가능합니다.,생활가전,182000,봉천동,37.480680357235364,126.9406579369716,2026-05-22 06:57:03,109,56,11
498,Xbox 컨트롤러 필요하신 분 가져가세요,집 정리하면서 Xbox 컨트롤러 내놓습니다. 사당동에서 직거래 가능합니다.,게임/취미,37000,사당동,37.47796132820024,126.97660184340455,2026-06-03 10:40:03,152,74,48
499,서랍장 이사 정리합니다,집 정리하면서 서랍장 내놓습니다. 대학동에서 직거래 가능합니다.,가구/인테리어,93000,대학동,37.468597353342936,126.93974346659729,2026-05-18 03:20:03,220,87,20
500,머신러닝 입문서 필요하신 분 가져가세요,사당동에서 거래 가능한 머신러닝 입문서입니다. 상태 좋고 빠른 거래 원합니다.,도서,28000,사당동,37.472224105585305,126.98561075695075,2026-06-04 22:00:03,423,16,18
501,아이폰 13 사용감 적어요,봉천동 인근에서 거래 원합니다. 아이폰 13 필요하신 분 연락 주세요.,디지털기기,265000,봉천동,37.480781273096184,126.9404278961484,2026-05-29 03:48:03,614,50,40
502,아기 장난감 급처합니다,집 정리하면서 아기 장난감 내놓습니다. 낙성대동에서 직거래 가능합니다.,유아용품,13000,낙성대동,37.473342672908935,126.9635745604301,2026-05-30 00:08:03,873,46,26
503,서랍장 판매합니다,봉천동에서 거래 가능한 서랍장입니다. 상태 좋고 빠른 거래 원합니다.,가구/인테리어,33000,봉천동,37.47897220268266,126.94465941614627,2026-05-13 01:50:03,457,17,5
504,스크래쳐 필요하신 분 가져가세요,집 정리하면서 스크래쳐 내놓습니다. 낙성대동에서 직거래 가능합니다.,반려동물용품,37000,낙성대동,37.47405740918411,126.95784771857296,2026-05-22 23:40:03,470,49,22
505,맥북 에어 이사 정리합니다,맥북 에어 상태 양호합니다. 청룡동 근처에서 시간 맞춰 거래 가능합니다.,디지털기기,775000,청룡동,37.48188149577702,126.95474882542554,2026-05-22 23:56:03,385,4,2
506,인덕션 이사 정리합니다,인덕션 판매합니다. 봉천동 근처 직거래 가능하고 사용감은 적은 편입니다.,생활가전,164000,봉천동,37.48649915478304,126.93748446350732,2026-05-09 09:03:03,539,10,33
507,하네스 저렴하게 내놓습니다,하네스 상태 양호합니다. 대학동 근처에서 시간 맞춰 거래 가능합니다.,반려동물용품,8000,대학동,37.47014034771864,126.94086055081407,2026-05-08 06:58:03,807,1,30
508,카메라 삼각대 필요하신 분 가져가세요,사당동 인근에서 거래 원합니다. 카메라 삼각대 필요하신 분 연락 주세요.,게임/취미,47000,사당동,37.47464070843212,126.98445021555153,2026-05-31 15:48:03,955,76,47
509,파이썬 입문서 이사 정리합니다,파이썬 입문서 상태 양호합니다. 낙성대동 근처에서 시간 맞춰 거래 가능합니다.,도서,9000,낙성대동,37.47466815654373,126.95442510166815,2026-05-15 07:41:03,765,79,1
510,프라이팬 거의 새상품입니다,프라이팬 판매합니다. 대학동 근처 직거래 가능하고 사용감은 적은 편입니다.,생활용품,40000,대학동,37.467346138476586,126.93771770125471,2026-05-28 09:32:03,769,14,38
511,옷장 사용감 적어요,낙성대동 인근에서 거래 원합니다. 옷장 필요하신 분 연락 주세요.,가구/인테리어,250000,낙성대동,37.47522847995341,126.9544440146571,2026-05-14 10:01:03,195,67,2
512,벽 선반 상태 좋아요,집 정리하면서 벽 선반 내놓습니다. 흑석동에서 직거래 가능합니다.,가구/인테리어,29000,흑석동,37.50590856747461,126.9659436111094,2026-05-28 20:04:03,753,81,10
513,덤벨 세트 거의 새상품입니다,봉천동에서 거래 가능한 덤벨 세트입니다. 상태 좋고 빠른 거래 원합니다.,스포츠/레저,31000,봉천동,37.48708251774553,126.94582459248696,2026-05-22 05:02:03,318,60,47
514,바람막이 필요하신 분 가져가세요,흑석동 인근에서 거래 원합니다. 바람막이 필요하신 분 연락 주세요.,의류,33000,흑석동,37.5105849340525,126.96821762722807,2026-05-20 04:32:03,305,57,24
515,갤럭시 S22 사용감 적어요,갤럭시 S22 상태 양호합니다. 상도동 근처에서 시간 맞춰 거래 가능합니다.,디지털기기,389000,상도동,37.50114343281569,126.9299115376369,2026-05-26 09:15:03,831,12,16
516,백팩 급처합니다,백팩 판매합니다. 사당동 근처 직거래 가능하고 사용감은 적은 편입니다.,의류,50000,사당동,37.47571248766614,126.98185264263927,2026-05-19 16:49:03,18,8,0
517,강아지 옷 급처합니다,대학동 인근에서 거래 원합니다. 강아지 옷 필요하신 분 연락 주세요.,반려동물용품,17000,대학동,37.47216605518564,126.94015459137088,2026-06-04 16:53:03,104,7,38
518,Xbox 컨트롤러 저렴하게 내놓습니다,Xbox 컨트롤러 상태 양호합니다. 봉천동 근처에서 시간 맞춰 거래 가능합니다.,게임/취미,46000,봉천동,37.48563200065845,126.93844768616378,2026-05-23 19:44:03,931,82,36
519,토스터기 거의 새상품입니다,집 정리하면서 토스터기 내놓습니다. 대학동에서 직거래 가능합니다.,생활가전,50000,대학동,37.46986983398886,126.9408339149287,2026-05-07 14:52:03,474,35,49
520,캠핑 의자 상태 좋아요,봉천동 인근에서 거래 원합니다. 캠핑 의자 필요하신 분 연락 주세요.,스포츠/레저,17000,봉천동,37.47937929486636,126.93729398481337,2026-05-24 05:11:03,71,33,16
521,볼캡 필요하신 분 가져가세요,집 정리하면서 볼캡 내놓습니다. 낙성대동에서 직거래 가능합니다.,의류,11000,낙성대동,37.47823338166969,126.96272609222842,2026-05-31 23:43:03,451,27,39
522,자바 기본서 판매합니다,봉천동에서 거래 가능한 자바 기본서입니다. 상태 좋고 빠른 거래 원합니다.,도서,26000,봉천동,37.47908854275441,126.94300335269278,2026-05-13 08:43:03,466,2,31
523,USB 허브 필요하신 분 가져가세요,USB 허브 판매합니다. 대학동 근처 직거래 가능하고 사용감은 적은 편입니다.,디지털기기,26000,대학동,37.4749991107323,126.93670679453896,2026-05-08 04:56:03,13,65,45
524,아기 장난감 저렴하게 내놓습니다,청룡동에서 거래 가능한 아기 장난감입니다. 상태 좋고 빠른 거래 원합니다.,유아용품,29000,청룡동,37.48187243885512,126.95705042187508,2026-05-05 18:40:03,808,61,7
525,텐트 거의 새상품입니다,상도동에서 거래 가능한 텐트입니다. 상태 좋고 빠른 거래 원합니다.,스포츠/레저,373000,상도동,37.49540456784675,126.93059639353756,2026-05-05 21:27:03,384,68,21
526,인문교양서 급처합니다,인문교양서 상태 양호합니다. 낙성대동 근처에서 시간 맞춰 거래 가능합니다.,도서,6000,낙성대동,37.47570104725185,126.95466768016746,2026-05-06 04:50:03,205,38,44
527,테니스 라켓 저렴하게 내놓습니다,테니스 라켓 판매합니다. 흑석동 근처 직거래 가능하고 사용감은 적은 편입니다.,스포츠/레저,45000,흑석동,37.508692325504775,126.95922992630845,2026-06-04 11:31:03,747,75,15
528,도시락통 이사 정리합니다,흑석동에서 거래 가능한 도시락통입니다. 상태 좋고 빠른 거래 원합니다.,생활용품,4000,흑석동,37.50785507855998,126.96071678175682,2026-05-26 16:11:03,816,92,2
529,방향제 상태 좋아요,청룡동에서 거래 가능한 방향제입니다. 상태 좋고 빠른 거래 원합니다.,생활용품,4000,청룡동,37.48527178878174,126.9538837208305,2026-05-13 13:01:03,679,2,30
530,맨투맨 판매합니다,낙성대동에서 거래 가능한 맨투맨입니다. 상태 좋고 빠른 거래 원합니다.,의류,29000,낙성대동,37.47243957615329,126.96177470394868,2026-05-10 14:03:03,635,21,37
531,전기장판 급처합니다,전기장판 판매합니다. 봉천동 근처 직거래 가능하고 사용감은 적은 편입니다.,생활가전,64000,봉천동,37.48735853269429,126.94235967010452,2026-05-25 17:49:03,421,41,7
532,스탠드 조명 급처합니다,스탠드 조명 상태 양호합니다. 신림동 근처에서 시간 맞춰 거래 가능합니다.,가구/인테리어,32000,신림동,37.48335154324234,126.9309629578568,2026-05-26 15:25:03,290,18,48
533,청소도구 세트 이사 정리합니다,청소도구 세트 상태 양호합니다. 청룡동 근처에서 시간 맞춰 거래 가능합니다.,생활용품,7000,청룡동,37.47996131056083,126.9492775366139,2026-06-01 13:42:03,877,80,39
534,고양이 캣타워 판매합니다,고양이 캣타워 판매합니다. 신림동 근처 직거래 가능하고 사용감은 적은 편입니다.,반려동물용품,52000,신림동,37.48613503527399,126.93192240714822,2026-05-13 20:55:03,918,36,26
535,사료 보관통 상태 좋아요,사료 보관통 판매합니다. 청룡동 근처 직거래 가능하고 사용감은 적은 편입니다.,반려동물용품,45000,청룡동,37.482305379886306,126.94807621211977,2026-05-28 01:04:03,431,30,11
536,협탁 저렴하게 내놓습니다,대학동 인근에서 거래 원합니다. 협탁 필요하신 분 연락 주세요.,가구/인테리어,63000,대학동,37.47536791479406,126.93798920939878,2026-06-05 00:17:03,206,15,33
537,쿠션 급처합니다,쿠션 판매합니다. 흑석동 근처 직거래 가능하고 사용감은 적은 편입니다.,생활용품,22000,흑석동,37.51223781694536,126.9677148437168,2026-06-04 11:25:03,825,19,43
538,고양이 화장실 상태 좋아요,신림동에서 거래 가능한 고양이 화장실입니다. 상태 좋고 빠른 거래 원합니다.,반려동물용품,56000,신림동,37.48725153674558,126.93158408020832,2026-05-27 11:05:03,267,42,39
539,갤럭시 S22 판매합니다,갤럭시 S22 판매합니다. 낙성대동 근처 직거래 가능하고 사용감은 적은 편입니다.,디지털기기,264000,낙성대동,37.476248208927565,126.95939761775777,2026-05-21 01:25:03,82,30,46
540,아기 식탁의자 사용감 적어요,청룡동에서 거래 가능한 아기 식탁의자입니다. 상태 좋고 빠른 거래 원합니다.,유아용품,103000,청룡동,37.47995532387878,126.94990662758302,2026-05-29 14:17:03,765,52,12
541,목줄 이사 정리합니다,집 정리하면서 목줄 내놓습니다. 신림동에서 직거래 가능합니다.,반려동물용품,7000,신림동,37.48056404614581,126.93119821216122,2026-05-29 22:03:03,192,49,23
542,캠핑 의자 급처합니다,캠핑 의자 판매합니다. 사당동 근처 직거래 가능하고 사용감은 적은 편입니다.,스포츠/레저,14000,사당동,37.48011651366543,126.98118578924971,2026-05-13 23:29:03,297,17,7
543,스탠드 조명 급처합니다,스탠드 조명 상태 양호합니다. 대학동 근처에서 시간 맞춰 거래 가능합니다.,가구/인테리어,30000,대학동,37.47530135841912,126.94035004021747,2026-05-10 20:53:03,937,21,36
544,고데기 이사 정리합니다,고데기 상태 양호합니다. 청룡동 근처에서 시간 맞춰 거래 가능합니다.,생활가전,65000,청룡동,37.48356178859119,126.95016654177067,2026-05-10 03:15:03,24,93,27
545,자전거 헬멧 급처합니다,자전거 헬멧 상태 양호합니다. 낙성대동 근처에서 시간 맞춰 거래 가능합니다.,스포츠/레저,10000,낙성대동,37.476842163285134,126.95785697643542,2026-05-23 16:30:03,491,93,49
546,블록 장난감 저렴하게 내놓습니다,집 정리하면서 블록 장난감 내놓습니다. 흑석동에서 직거래 가능합니다.,유아용품,35000,흑석동,37.5078661808066,126.96078006485199,2026-06-02 23:44:03,22,88,46
547,캠핑 테이블 급처합니다,봉천동에서 거래 가능한 캠핑 테이블입니다. 상태 좋고 빠른 거래 원합니다.,스포츠/레저,142000,봉천동,37.4850728669661,126.93684413473729,2026-05-15 08:22:03,730,58,36
548,강아지 장난감 상태 좋아요,강아지 장난감 판매합니다. 상도동 근처 직거래 가능하고 사용감은 적은 편입니다.,반려동물용품,28000,상도동,37.49461363648924,126.93227305023899,2026-05-09 05:52:03,485,90,40
549,아기띠 사용감 적어요,신림동 인근에서 거래 원합니다. 아기띠 필요하신 분 연락 주세요.,유아용품,129000,신림동,37.484952293675725,126.92607146426944,2026-05-12 08:48:03,978,78,34
550,스팀다리미 사용감 적어요,스팀다리미 상태 양호합니다. 신림동 근처에서 시간 맞춰 거래 가능합니다.,생활가전,96000,신림동,37.48539133450396,126.92765571143973,2026-05-25 16:25:03,402,46,29
551,전신거울 저렴하게 내놓습니다,전신거울 판매합니다. 청룡동 근처 직거래 가능하고 사용감은 적은 편입니다.,가구/인테리어,52000,청룡동,37.48559147932472,126.95350119385354,2026-05-29 00:25:03,674,61,47
552,청바지 사용감 적어요,사당동 인근에서 거래 원합니다. 청바지 필요하신 분 연락 주세요.,의류,42000,사당동,37.47505226581785,126.98146226905148,2026-05-15 04:15:03,65,8,23
553,수납 박스 이사 정리합니다,집 정리하면서 수납 박스 내놓습니다. 대학동에서 직거래 가능합니다.,생활용품,42000,대학동,37.47451903213292,126.93637874119933,2026-05-24 19:48:03,838,8,12
554,헤어드라이기 상태 좋아요,대학동에서 거래 가능한 헤어드라이기입니다. 상태 좋고 빠른 거래 원합니다.,생활가전,18000,대학동,37.46710498068891,126.93384256158477,2026-05-31 09:25:03,723,18,31
555,갤럭시워치 필요하신 분 가져가세요,집 정리하면서 갤럭시워치 내놓습니다. 낙성대동에서 직거래 가능합니다.,디지털기기,168000,낙성대동,37.47369060658685,126.9538203661853,2026-05-23 02:45:03,670,2,18
556,로퍼 사용감 적어요,로퍼 상태 양호합니다. 상도동 근처에서 시간 맞춰 거래 가능합니다.,의류,58000,상도동,37.50125855345852,126.93130166229918,2026-05-15 20:42:03,344,62,37
557,방향제 이사 정리합니다,방향제 상태 양호합니다. 대학동 근처에서 시간 맞춰 거래 가능합니다.,생활용품,7000,대학동,37.47044243112593,126.94150724048377,2026-05-08 08:22:03,818,33,14
558,갤럭시 S23 사용감 적어요,집 정리하면서 갤럭시 S23 내놓습니다. 대학동에서 직거래 가능합니다.,디지털기기,535000,대학동,37.47533206089253,126.94019331676871,2026-05-17 11:47:03,558,36,11
559,침대 프레임 급처합니다,봉천동에서 거래 가능한 침대 프레임입니다. 상태 좋고 빠른 거래 원합니다.,가구/인테리어,131000,봉천동,37.47965155361909,126.94367134381194,2026-05-18 13:04:03,276,47,11
560,침낭 상태 좋아요,집 정리하면서 침낭 내놓습니다. 사당동에서 직거래 가능합니다.,스포츠/레저,56000,사당동,37.48091068915869,126.98428518165836,2026-05-19 08:25:03,952,3,25
561,스크래쳐 사용감 적어요,낙성대동에서 거래 가능한 스크래쳐입니다. 상태 좋고 빠른 거래 원합니다.,반려동물용품,52000,낙성대동,37.47653910673677,126.95649827182663,2026-05-19 01:11:03,672,90,18
562,게임 패드 이사 정리합니다,사당동에서 거래 가능한 게임 패드입니다. 상태 좋고 빠른 거래 원합니다.,게임/취미,56000,사당동,37.47468082200771,126.98061629921925,2026-05-21 16:24:03,704,70,7
563,트레이닝 팬츠 사용감 적어요,봉천동 인근에서 거래 원합니다. 트레이닝 팬츠 필요하신 분 연락 주세요.,의류,11000,봉천동,37.485412833557696,126.94427095120831,2026-05-16 21:20:03,607,67,14
564,롱패딩 저렴하게 내놓습니다,흑석동에서 거래 가능한 롱패딩입니다. 상태 좋고 빠른 거래 원합니다.,의류,161000,흑석동,37.50891555842634,126.95916047617708,2026-05-24 11:01:03,335,77,38
565,낚시대 상태 좋아요,상도동 인근에서 거래 원합니다. 낚시대 필요하신 분 연락 주세요.,스포츠/레저,118000,상도동,37.50437523628217,126.93474301735766,2026-05-25 17:14:03,363,44,19
566,공기청정기 이사 정리합니다,집 정리하면서 공기청정기 내놓습니다. 상도동에서 직거래 가능합니다.,생활가전,187000,상도동,37.49599567686882,126.93187180067584,2026-05-30 17:35:03,444,93,26
567,믹서기 급처합니다,집 정리하면서 믹서기 내놓습니다. 대학동에서 직거래 가능합니다.,생활가전,77000,대학동,37.469357724097996,126.93186618867885,2026-05-26 14:33:03,993,75,48
568,경제경영 도서 상태 좋아요,경제경영 도서 상태 양호합니다. 흑석동 근처에서 시간 맞춰 거래 가능합니다.,도서,9000,흑석동,37.508705856180356,126.96682799219387,2026-05-30 11:39:03,400,37,35
569,코딩 테스트 책 거의 새상품입니다,코딩 테스트 책 상태 양호합니다. 흑석동 근처에서 시간 맞춰 거래 가능합니다.,도서,33000,흑석동,37.50642677023561,126.96816026596133,2026-05-22 10:31:03,820,0,9
570,고양이 캣타워 거의 새상품입니다,고양이 캣타워 판매합니다. 상도동 근처 직거래 가능하고 사용감은 적은 편입니다.,반려동물용품,155000,상도동,37.50224718355814,126.93093050225036,2026-05-06 18:51:03,260,3,7
571,스팀다리미 사용감 적어요,스팀다리미 상태 양호합니다. 흑석동 근처에서 시간 맞춰 거래 가능합니다.,생활가전,65000,흑석동,37.511982807946175,126.96233202215973,2026-05-09 08:52:03,712,60,44
572,닌텐도 스위치 거의 새상품입니다,닌텐도 스위치 상태 양호합니다. 낙성대동 근처에서 시간 맞춰 거래 가능합니다.,게임/취미,194000,낙성대동,37.47537385465229,126.95412888328379,2026-06-01 07:03:03,909,88,8
573,자전거 헬멧 사용감 적어요,신림동 인근에서 거래 원합니다. 자전거 헬멧 필요하신 분 연락 주세요.,스포츠/레저,47000,신림동,37.48686442437679,126.92583247497414,2026-05-19 20:33:03,88,65,12
574,스팀다리미 상태 좋아요,사당동 인근에서 거래 원합니다. 스팀다리미 필요하신 분 연락 주세요.,생활가전,97000,사당동,37.475225226773006,126.98194420323223,2026-05-11 08:15:03,711,89,44
575,폼롤러 판매합니다,폼롤러 상태 양호합니다. 낙성대동 근처에서 시간 맞춰 거래 가능합니다.,스포츠/레저,14000,낙성대동,37.4739787621196,126.95863382893064,2026-05-25 02:06:03,358,20,6
576,토트백 저렴하게 내놓습니다,집 정리하면서 토트백 내놓습니다. 상도동에서 직거래 가능합니다.,의류,29000,상도동,37.49771573465847,126.92962568565748,2026-06-02 12:33:03,27,61,22
577,스크래쳐 사용감 적어요,낙성대동 인근에서 거래 원합니다. 스크래쳐 필요하신 분 연락 주세요.,반려동물용품,6000,낙성대동,37.47868047157426,126.95667428323667,2026-05-13 14:18:03,141,88,9
578,맨투맨 저렴하게 내놓습니다,상도동에서 거래 가능한 맨투맨입니다. 상태 좋고 빠른 거래 원합니다.,의류,14000,상도동,37.495678173818646,126.9339305518165,2026-06-05 01:44:03,451,5,12
579,수건 세트 판매합니다,흑석동에서 거래 가능한 수건 세트입니다. 상태 좋고 빠른 거래 원합니다.,생활용품,21000,흑석동,37.50476503598857,126.95983793556691,2026-06-04 15:13:03,693,1,48
580,레고 세트 급처합니다,낙성대동 인근에서 거래 원합니다. 레고 세트 필요하신 분 연락 주세요.,게임/취미,34000,낙성대동,37.47527836541773,126.95520557336026,2026-06-03 12:38:03,774,35,37
581,화장품 정리함 저렴하게 내놓습니다,화장품 정리함 상태 양호합니다. 봉천동 근처에서 시간 맞춰 거래 가능합니다.,생활용품,5000,봉천동,37.48661660291508,126.94197126489016,2026-05-20 10:47:03,206,36,10
582,공기청정기 이사 정리합니다,공기청정기 상태 양호합니다. 사당동 근처에서 시간 맞춰 거래 가능합니다.,생활가전,134000,사당동,37.47584091847347,126.98174251002875,2026-05-21 20:26:03,195,45,24
583,카시트 사용감 적어요,집 정리하면서 카시트 내놓습니다. 봉천동에서 직거래 가능합니다.,유아용품,86000,봉천동,37.48048271259942,126.94382136572305,2026-05-20 13:01:03,790,46,45
584,무선청소기 이사 정리합니다,집 정리하면서 무선청소기 내놓습니다. 봉천동에서 직거래 가능합니다.,생활가전,185000,봉천동,37.479858734297295,126.94067282220502,2026-05-21 21:45:03,329,87,28
585,아기 식탁의자 저렴하게 내놓습니다,흑석동 인근에서 거래 원합니다. 아기 식탁의자 필요하신 분 연락 주세요.,유아용품,65000,흑석동,37.50818058350404,126.96518548263285,2026-06-04 20:01:03,698,13,25
586,캡슐 커피머신 상태 좋아요,집 정리하면서 캡슐 커피머신 내놓습니다. 상도동에서 직거래 가능합니다.,생활가전,56000,상도동,37.49660263497196,126.9344402950101,2026-05-13 12:28:03,382,25,21
587,카시트 급처합니다,집 정리하면서 카시트 내놓습니다. 상도동에서 직거래 가능합니다.,유아용품,172000,상도동,37.502163029437476,126.93400984230964,2026-05-11 18:43:03,605,75,17
588,젖병 소독기 이사 정리합니다,집 정리하면서 젖병 소독기 내놓습니다. 상도동에서 직거래 가능합니다.,유아용품,150000,상도동,37.49710689860354,126.93097273782125,2026-05-28 12:43:03,475,13,7
589,컴퓨터 책상 저렴하게 내놓습니다,신림동에서 거래 가능한 컴퓨터 책상입니다. 상태 좋고 빠른 거래 원합니다.,가구/인테리어,147000,신림동,37.482469558858334,126.92702752611206,2026-05-15 17:21:03,401,77,43
590,Xbox 컨트롤러 저렴하게 내놓습니다,집 정리하면서 Xbox 컨트롤러 내놓습니다. 흑석동에서 직거래 가능합니다.,게임/취미,55000,흑석동,37.5092243811476,126.96669481597391,2026-05-26 20:01:03,512,64,16
591,베개 판매합니다,집 정리하면서 베개 내놓습니다. 신림동에서 직거래 가능합니다.,생활용품,12000,신림동,37.48379656238824,126.92432859796114,2026-05-24 03:12:03,883,48,28
592,도시락통 상태 좋아요,집 정리하면서 도시락통 내놓습니다. 흑석동에서 직거래 가능합니다.,생활용품,7000,흑석동,37.509488552236185,126.96350553711802,2026-05-26 19:08:03,509,97,7
593,베개 이사 정리합니다,베개 상태 양호합니다. 흑석동 근처에서 시간 맞춰 거래 가능합니다.,생활용품,15000,흑석동,37.51350870758428,126.96476939676378,2026-05-20 16:07:03,279,63,37
594,캠핑 테이블 사용감 적어요,신림동에서 거래 가능한 캠핑 테이블입니다. 상태 좋고 빠른 거래 원합니다.,스포츠/레저,31000,신림동,37.47946899842659,126.9329134289045,2026-06-01 06:10:03,838,94,37
595,낚시대 저렴하게 내놓습니다,상도동 인근에서 거래 원합니다. 낚시대 필요하신 분 연락 주세요.,스포츠/레저,111000,상도동,37.49694622088433,126.92912099528257,2026-05-23 06:29:03,687,31,15
596,전기포트 거의 새상품입니다,봉천동 인근에서 거래 원합니다. 전기포트 필요하신 분 연락 주세요.,생활가전,15000,봉천동,37.48623368521798,126.9422804940488,2026-06-05 00:12:03,48,58,42
597,분유포트 판매합니다,분유포트 상태 양호합니다. 흑석동 근처에서 시간 맞춰 거래 가능합니다.,유아용품,12000,흑석동,37.50477725673082,126.96348358617574,2026-05-26 04:56:03,409,41,36
598,원피스 이사 정리합니다,원피스 판매합니다. 사당동 근처 직거래 가능하고 사용감은 적은 편입니다.,의류,48000,사당동,37.472353211814195,126.98510334298133,2026-05-25 04:20:03,518,81,50
599,운동복 세트 거의 새상품입니다,신림동 인근에서 거래 원합니다. 운동복 세트 필요하신 분 연락 주세요.,의류,88000,신림동,37.48764186884002,126.92494733615159,2026-05-24 09:53:03,770,11,45
600,캠핑 의자 저렴하게 내놓습니다,집 정리하면서 캠핑 의자 내놓습니다. 흑석동에서 직거래 가능합니다.,스포츠/레저,36000,흑석동,37.511841267119344,126.96292910484549,2026-05-25 14:51:03,853,38,32
601,장우산 급처합니다,집 정리하면서 장우산 내놓습니다. 상도동에서 직거래 가능합니다.,생활용품,11000,상도동,37.49640600850887,126.92618603322117,2026-05-17 01:03:03,697,97,35
602,청소도구 세트 이사 정리합니다,집 정리하면서 청소도구 세트 내놓습니다. 청룡동에서 직거래 가능합니다.,생활용품,22000,청룡동,37.48526835827483,126.9570463593398,2026-05-06 20:58:03,838,78,49
603,게이밍 모니터 급처합니다,집 정리하면서 게이밍 모니터 내놓습니다. 사당동에서 직거래 가능합니다.,디지털기기,155000,사당동,37.480041219958316,126.98070260262479,2026-05-29 12:45:03,711,97,19
604,공기청정기 필요하신 분 가져가세요,대학동 인근에서 거래 원합니다. 공기청정기 필요하신 분 연락 주세요.,생활가전,122000,대학동,37.46673558576628,126.9337191601148,2026-05-27 19:54:03,251,51,15
605,운동복 세트 이사 정리합니다,운동복 세트 상태 양호합니다. 흑석동 근처에서 시간 맞춰 거래 가능합니다.,의류,70000,흑석동,37.50652711963478,126.95889141867596,2026-05-22 20:35:03,47,25,10
606,인문교양서 상태 좋아요,집 정리하면서 인문교양서 내놓습니다. 신림동에서 직거래 가능합니다.,도서,5000,신림동,37.488205748849744,126.9280700685156,2026-06-04 15:12:03,626,38,4
607,아령 필요하신 분 가져가세요,아령 판매합니다. 낙성대동 근처 직거래 가능하고 사용감은 적은 편입니다.,스포츠/레저,12000,낙성대동,37.47844217135526,126.95940419741197,2026-05-17 18:00:03,965,15,33
608,텀블러 이사 정리합니다,텀블러 판매합니다. 봉천동 근처 직거래 가능하고 사용감은 적은 편입니다.,생활용품,10000,봉천동,37.48149950668855,126.94408374229252,2026-05-12 07:11:03,862,74,47
609,반팔 티셔츠 급처합니다,낙성대동에서 거래 가능한 반팔 티셔츠입니다. 상태 좋고 빠른 거래 원합니다.,의류,16000,낙성대동,37.47235925402718,126.95893469970336,2026-05-30 09:04:03,428,32,37
610,무선청소기 필요하신 분 가져가세요,무선청소기 판매합니다. 흑석동 근처 직거래 가능하고 사용감은 적은 편입니다.,생활가전,182000,흑석동,37.51201365366192,126.95881074210446,2026-05-08 13:09:03,496,91,23
611,플스5 게임 타이틀 판매합니다,청룡동 인근에서 거래 원합니다. 플스5 게임 타이틀 필요하신 분 연락 주세요.,게임/취미,55000,청룡동,37.48523157098683,126.95455248338595,2026-05-24 07:52:03,991,89,23
612,화장품 정리함 이사 정리합니다,상도동에서 거래 가능한 화장품 정리함입니다. 상태 좋고 빠른 거래 원합니다.,생활용품,30000,상도동,37.497574229023634,126.93459416737335,2026-05-07 09:13:03,102,96,15
613,옷장 사용감 적어요,상도동에서 거래 가능한 옷장입니다. 상태 좋고 빠른 거래 원합니다.,가구/인테리어,120000,상도동,37.50196941966511,126.9352649721981,2026-05-09 14:40:03,808,62,30
614,자전거 헬멧 저렴하게 내놓습니다,낙성대동 인근에서 거래 원합니다. 자전거 헬멧 필요하신 분 연락 주세요.,스포츠/레저,74000,낙성대동,37.47917785520604,126.95813261753136,2026-06-03 06:06:03,626,93,35
615,와이파이 공유기 판매합니다,집 정리하면서 와이파이 공유기 내놓습니다. 낙성대동에서 직거래 가능합니다.,디지털기기,27000,낙성대동,37.477558093452615,126.95470828199669,2026-06-05 05:20:03,653,39,20
616,로퍼 상태 좋아요,상도동 인근에서 거래 원합니다. 로퍼 필요하신 분 연락 주세요.,의류,72000,상도동,37.500530204155055,126.9292758043557,2026-05-20 18:24:03,276,22,43
617,정보처리기사 교재 저렴하게 내놓습니다,상도동 인근에서 거래 원합니다. 정보처리기사 교재 필요하신 분 연락 주세요.,도서,15000,상도동,37.49480734637589,126.92622970094703,2026-05-24 04:39:03,915,73,14
618,화장품 정리함 저렴하게 내놓습니다,화장품 정리함 판매합니다. 흑석동 근처 직거래 가능하고 사용감은 적은 편입니다.,생활용품,21000,흑석동,37.509803927309825,126.96009251200923,2026-05-14 12:29:03,420,79,27
619,실내 자전거 저렴하게 내놓습니다,실내 자전거 상태 양호합니다. 신림동 근처에서 시간 맞춰 거래 가능합니다.,스포츠/레저,161000,신림동,37.481444839497925,126.92603145363857,2026-05-12 02:40:03,699,63,7
620,토익 교재 이사 정리합니다,토익 교재 판매합니다. 상도동 근처 직거래 가능하고 사용감은 적은 편입니다.,도서,18000,상도동,37.50137188651185,126.93018330991121,2026-05-09 10:54:03,230,36,46
621,놀이매트 상태 좋아요,신림동 인근에서 거래 원합니다. 놀이매트 필요하신 분 연락 주세요.,유아용품,87000,신림동,37.48502903077336,126.93047235568301,2026-05-28 22:04:03,939,31,23
622,전자레인지 이사 정리합니다,낙성대동 인근에서 거래 원합니다. 전자레인지 필요하신 분 연락 주세요.,생활가전,108000,낙성대동,37.476032909510735,126.95957195940139,2026-05-23 20:19:03,740,49,45
623,캡슐 커피머신 판매합니다,신림동 인근에서 거래 원합니다. 캡슐 커피머신 필요하신 분 연락 주세요.,생활가전,90000,신림동,37.48629565965446,126.93209852950615,2026-05-21 05:54:03,971,85,38
624,애플워치 필요하신 분 가져가세요,집 정리하면서 애플워치 내놓습니다. 대학동에서 직거래 가능합니다.,디지털기기,463000,대학동,37.467393722231705,126.93349866498588,2026-05-25 12:35:03,582,5,37
625,스크래쳐 사용감 적어요,스크래쳐 판매합니다. 흑석동 근처 직거래 가능하고 사용감은 적은 편입니다.,반려동물용품,10000,흑석동,37.504968420561646,126.95904162161489,2026-05-25 18:59:03,453,18,16
626,협탁 거의 새상품입니다,집 정리하면서 협탁 내놓습니다. 사당동에서 직거래 가능합니다.,가구/인테리어,46000,사당동,37.47676972685702,126.98095775368606,2026-05-08 08:53:03,859,97,16
627,스탠드 조명 이사 정리합니다,스탠드 조명 상태 양호합니다. 낙성대동 근처에서 시간 맞춰 거래 가능합니다.,가구/인테리어,66000,낙성대동,37.47215862248169,126.95620223963586,2026-06-04 11:23:03,65,29,11
628,고양이 장난감 저렴하게 내놓습니다,흑석동에서 거래 가능한 고양이 장난감입니다. 상태 좋고 빠른 거래 원합니다.,반려동물용품,17000,흑석동,37.50492490883811,126.96579763963423,2026-05-24 18:57:03,506,58,31
629,책장 사용감 적어요,책장 판매합니다. 봉천동 근처 직거래 가능하고 사용감은 적은 편입니다.,가구/인테리어,56000,봉천동,37.48650894522243,126.94245677401813,2026-05-31 11:45:03,530,34,36
630,닌텐도 스위치 상태 좋아요,상도동에서 거래 가능한 닌텐도 스위치입니다. 상태 좋고 빠른 거래 원합니다.,게임/취미,243000,상도동,37.49744281251441,126.93581334475283,2026-05-12 01:49:03,106,42,1
631,헤어드라이기 사용감 적어요,봉천동 인근에서 거래 원합니다. 헤어드라이기 필요하신 분 연락 주세요.,생활가전,24000,봉천동,37.482398550937624,126.94288356739544,2026-06-05 15:03:03,860,90,42
632,에세이 판매합니다,사당동에서 거래 가능한 에세이입니다. 상태 좋고 빠른 거래 원합니다.,도서,19000,사당동,37.4737136686104,126.97708682248604,2026-05-25 17:46:03,938,72,8
633,컴퓨터활용능력 교재 판매합니다,컴퓨터활용능력 교재 상태 양호합니다. 봉천동 근처에서 시간 맞춰 거래 가능합니다.,도서,24000,봉천동,37.48725049309812,126.94525515510729,2026-05-24 15:07:03,271,22,15
634,전자레인지 급처합니다,집 정리하면서 전자레인지 내놓습니다. 낙성대동에서 직거래 가능합니다.,생활가전,119000,낙성대동,37.47300601984102,126.9585084509761,2026-05-24 07:51:03,780,83,9
635,아기 욕조 거의 새상품입니다,낙성대동 인근에서 거래 원합니다. 아기 욕조 필요하신 분 연락 주세요.,유아용품,47000,낙성대동,37.48065413038642,126.9583643968663,2026-06-02 06:00:03,214,62,28
636,우쿨렐레 저렴하게 내놓습니다,상도동 인근에서 거래 원합니다. 우쿨렐레 필요하신 분 연락 주세요.,게임/취미,98000,상도동,37.49973341459198,126.9357327179062,2026-05-31 03:52:03,446,11,2
637,맨투맨 이사 정리합니다,봉천동 인근에서 거래 원합니다. 맨투맨 필요하신 분 연락 주세요.,의류,39000,봉천동,37.47908606538655,126.93787789748343,2026-05-23 14:34:03,830,61,19
638,코딩 테스트 책 급처합니다,상도동 인근에서 거래 원합니다. 코딩 테스트 책 필요하신 분 연락 주세요.,도서,28000,상도동,37.49567632171442,126.93024913521208,2026-06-04 00:28:03,949,5,32
639,전기히터 거의 새상품입니다,사당동 인근에서 거래 원합니다. 전기히터 필요하신 분 연락 주세요.,생활가전,84000,사당동,37.476228789438274,126.98446177092659,2026-06-03 01:31:03,126,94,42
640,유모차 저렴하게 내놓습니다,상도동 인근에서 거래 원합니다. 유모차 필요하신 분 연락 주세요.,유아용품,210000,상도동,37.50083810394167,126.92865074389735,2026-05-17 18:03:03,785,85,28
641,싱글 매트리스 상태 좋아요,싱글 매트리스 상태 양호합니다. 봉천동 근처에서 시간 맞춰 거래 가능합니다.,가구/인테리어,96000,봉천동,37.47765847069583,126.93776678260366,2026-05-08 20:26:03,454,68,1
642,협탁 이사 정리합니다,협탁 상태 양호합니다. 상도동 근처에서 시간 맞춰 거래 가능합니다.,가구/인테리어,72000,상도동,37.501338031429285,126.93290293354356,2026-05-26 21:40:03,641,46,44
643,놀이매트 거의 새상품입니다,놀이매트 판매합니다. 봉천동 근처 직거래 가능하고 사용감은 적은 편입니다.,유아용품,54000,봉천동,37.4873052036366,126.94519012030264,2026-06-05 11:25:03,845,2,44
644,운동화 상태 좋아요,집 정리하면서 운동화 내놓습니다. 청룡동에서 직거래 가능합니다.,의류,68000,청룡동,37.48041879224642,126.94886458819553,2026-06-03 07:43:03,484,18,30
645,옷장 이사 정리합니다,흑석동에서 거래 가능한 옷장입니다. 상태 좋고 빠른 거래 원합니다.,가구/인테리어,270000,흑석동,37.51209450762524,126.96251733393453,2026-05-21 23:17:03,216,37,36
646,요가매트 저렴하게 내놓습니다,집 정리하면서 요가매트 내놓습니다. 상도동에서 직거래 가능합니다.,스포츠/레저,36000,상도동,37.4949701721495,126.92999680372223,2026-05-12 22:54:03,758,70,18
647,수건 세트 이사 정리합니다,청룡동에서 거래 가능한 수건 세트입니다. 상태 좋고 빠른 거래 원합니다.,생활용품,38000,청룡동,37.4788784887085,126.95418300285765,2026-06-05 03:56:03,333,70,4
648,고양이 캣타워 이사 정리합니다,집 정리하면서 고양이 캣타워 내놓습니다. 사당동에서 직거래 가능합니다.,반려동물용품,208000,사당동,37.47629240437029,126.98098110688568,2026-05-23 17:22:03,304,92,12
649,화장품 정리함 사용감 적어요,화장품 정리함 판매합니다. 흑석동 근처 직거래 가능하고 사용감은 적은 편입니다.,생활용품,23000,흑석동,37.510325001878634,126.962202555677,2026-05-12 19:08:03,992,53,43
650,물그릇 상태 좋아요,청룡동 인근에서 거래 원합니다. 물그릇 필요하신 분 연락 주세요.,반려동물용품,25000,청룡동,37.47819484222802,126.95375749007256,2026-05-13 14:50:03,504,16,11
651,고데기 이사 정리합니다,고데기 판매합니다. 대학동 근처 직거래 가능하고 사용감은 적은 편입니다.,생활가전,31000,대학동,37.472369278582825,126.93354714794964,2026-05-19 16:31:03,377,33,22
652,냄비 세트 저렴하게 내놓습니다,집 정리하면서 냄비 세트 내놓습니다. 사당동에서 직거래 가능합니다.,생활용품,39000,사당동,37.474178221410035,126.98000324213989,2026-05-17 10:25:03,585,28,31
653,덤벨 세트 거의 새상품입니다,덤벨 세트 상태 양호합니다. 낙성대동 근처에서 시간 맞춰 거래 가능합니다.,스포츠/레저,87000,낙성대동,37.48142647109043,126.96115764336221,2026-05-15 13:47:03,61,56,29
654,스팀다리미 저렴하게 내놓습니다,스팀다리미 상태 양호합니다. 신림동 근처에서 시간 맞춰 거래 가능합니다.,생활가전,23000,신림동,37.48077032547357,126.9269212298772,2026-05-30 21:25:03,901,26,23
655,물그릇 이사 정리합니다,물그릇 판매합니다. 봉천동 근처 직거래 가능하고 사용감은 적은 편입니다.,반려동물용품,23000,봉천동,37.48199108460915,126.94075749838719,2026-05-25 06:40:03,151,15,12
656,갤럭시탭 이사 정리합니다,사당동 인근에서 거래 원합니다. 갤럭시탭 필요하신 분 연락 주세요.,디지털기기,408000,사당동,37.47575008607213,126.98289440401979,2026-05-31 15:15:03,391,91,48
657,맨투맨 필요하신 분 가져가세요,맨투맨 판매합니다. 청룡동 근처 직거래 가능하고 사용감은 적은 편입니다.,의류,37000,청룡동,37.483021986389296,126.95713740256352,2026-05-23 03:35:03,479,66,50
658,고양이 화장실 판매합니다,봉천동에서 거래 가능한 고양이 화장실입니다. 상태 좋고 빠른 거래 원합니다.,반려동물용품,53000,봉천동,37.4815326626628,126.936970937337,2026-05-26 04:43:03,178,55,3
659,수납장 판매합니다,집 정리하면서 수납장 내놓습니다. 대학동에서 직거래 가능합니다.,가구/인테리어,122000,대학동,37.4730269750203,126.94089230853201,2026-05-07 19:48:03,576,38,46
660,애플워치 상태 좋아요,집 정리하면서 애플워치 내놓습니다. 상도동에서 직거래 가능합니다.,디지털기기,449000,상도동,37.499021438179724,126.9294525061315,2026-05-29 23:53:03,817,79,41
661,놀이매트 급처합니다,대학동에서 거래 가능한 놀이매트입니다. 상태 좋고 빠른 거래 원합니다.,유아용품,29000,대학동,37.474398756161776,126.9370046970272,2026-05-19 07:08:03,752,92,47
662,도시락통 급처합니다,도시락통 상태 양호합니다. 봉천동 근처에서 시간 맞춰 거래 가능합니다.,생활용품,20000,봉천동,37.4778342174223,126.94550319338416,2026-05-27 01:11:03,785,81,10
663,수건 세트 거의 새상품입니다,청룡동 인근에서 거래 원합니다. 수건 세트 필요하신 분 연락 주세요.,생활용품,32000,청룡동,37.48246989532318,126.95124473345903,2026-05-20 13:46:03,71,47,16
664,와이파이 공유기 저렴하게 내놓습니다,흑석동 인근에서 거래 원합니다. 와이파이 공유기 필요하신 분 연락 주세요.,디지털기기,10000,흑석동,37.5094559722658,126.96754338897895,2026-05-22 07:17:03,834,95,37
665,화장품 정리함 사용감 적어요,대학동 인근에서 거래 원합니다. 화장품 정리함 필요하신 분 연락 주세요.,생활용품,47000,대학동,37.469376657247516,126.93917512322126,2026-05-10 18:56:03,698,17,45
666,무선청소기 급처합니다,집 정리하면서 무선청소기 내놓습니다. 사당동에서 직거래 가능합니다.,생활가전,90000,사당동,37.472522486116155,126.98084886732462,2026-05-31 19:05:03,858,52,5
667,협탁 급처합니다,흑석동에서 거래 가능한 협탁입니다. 상태 좋고 빠른 거래 원합니다.,가구/인테리어,57000,흑석동,37.51158824719748,126.96732014792738,2026-05-15 01:07:03,612,71,33
668,그림 도구 필요하신 분 가져가세요,집 정리하면서 그림 도구 내놓습니다. 흑석동에서 직거래 가능합니다.,게임/취미,58000,흑석동,37.51091150567664,126.95989385187984,2026-05-10 12:23:03,527,16,31
669,쿠션 저렴하게 내놓습니다,집 정리하면서 쿠션 내놓습니다. 청룡동에서 직거래 가능합니다.,생활용품,35000,청룡동,37.48541697355448,126.94888766058993,2026-06-03 18:22:03,976,71,23
670,카시트 저렴하게 내놓습니다,카시트 상태 양호합니다. 사당동 근처에서 시간 맞춰 거래 가능합니다.,유아용품,178000,사당동,37.48151020101118,126.97963260082707,2026-06-04 01:23:03,130,47,19
671,강아지 하우스 상태 좋아요,강아지 하우스 상태 양호합니다. 낙성대동 근처에서 시간 맞춰 거래 가능합니다.,반려동물용품,63000,낙성대동,37.47999125069228,126.95848793656246,2026-06-04 07:36:03,300,27,11
672,전기밥솥 사용감 적어요,봉천동에서 거래 가능한 전기밥솥입니다. 상태 좋고 빠른 거래 원합니다.,생활가전,136000,봉천동,37.48541349348853,126.94135227548438,2026-05-20 23:13:03,589,57,21
673,게임 패드 상태 좋아요,집 정리하면서 게임 패드 내놓습니다. 흑석동에서 직거래 가능합니다.,게임/취미,52000,흑석동,37.51179811621195,126.96524502312418,2026-05-22 12:37:03,755,41,5
674,아기 장난감 급처합니다,상도동 인근에서 거래 원합니다. 아기 장난감 필요하신 분 연락 주세요.,유아용품,39000,상도동,37.501059165296596,126.93465953573327,2026-06-03 19:36:03,463,94,17
675,맥북 에어 거의 새상품입니다,맥북 에어 상태 양호합니다. 봉천동 근처에서 시간 맞춰 거래 가능합니다.,디지털기기,587000,봉천동,37.4871729280688,126.94181753789405,2026-05-29 21:58:03,600,96,3
676,반려동물 방석 판매합니다,반려동물 방석 상태 양호합니다. 봉천동 근처에서 시간 맞춰 거래 가능합니다.,반려동물용품,28000,봉천동,37.48589690551054,126.94498917440829,2026-05-06 17:15:03,815,26,15
677,디지털 피아노 저렴하게 내놓습니다,집 정리하면서 디지털 피아노 내놓습니다. 사당동에서 직거래 가능합니다.,게임/취미,146000,사당동,37.47184056940225,126.98187901756148,2026-05-21 17:11:03,457,23,26
678,분유포트 저렴하게 내놓습니다,봉천동에서 거래 가능한 분유포트입니다. 상태 좋고 빠른 거래 원합니다.,유아용품,79000,봉천동,37.4784962856348,126.93966794218362,2026-05-31 08:23:03,197,32,49
679,기저귀 정리함 상태 좋아요,기저귀 정리함 상태 양호합니다. 신림동 근처에서 시간 맞춰 거래 가능합니다.,유아용품,25000,신림동,37.480187442159654,126.92542460550463,2026-05-31 16:47:03,69,38,24
680,캠핑 의자 필요하신 분 가져가세요,봉천동에서 거래 가능한 캠핑 의자입니다. 상태 좋고 빠른 거래 원합니다.,스포츠/레저,35000,봉천동,37.4851238997865,126.9404504867963,2026-05-28 21:55:03,252,63,32
681,제습기 판매합니다,집 정리하면서 제습기 내놓습니다. 사당동에서 직거래 가능합니다.,생활가전,211000,사당동,37.473937404557596,126.98546155896028,2026-05-23 15:02:03,39,52,40
682,소설책 세트 저렴하게 내놓습니다,소설책 세트 상태 양호합니다. 청룡동 근처에서 시간 맞춰 거래 가능합니다.,도서,18000,청룡동,37.481204323736094,126.95552881587504,2026-05-26 23:06:03,466,10,40
683,러그 상태 좋아요,러그 상태 양호합니다. 청룡동 근처에서 시간 맞춰 거래 가능합니다.,가구/인테리어,64000,청룡동,37.485811144425675,126.95390729917952,2026-05-06 00:04:03,52,0,29
684,컴퓨터 책상 판매합니다,흑석동 인근에서 거래 원합니다. 컴퓨터 책상 필요하신 분 연락 주세요.,가구/인테리어,84000,흑석동,37.50965159166461,126.96370328421602,2026-05-09 20:08:03,369,80,13
685,아이패드 미니 저렴하게 내놓습니다,대학동에서 거래 가능한 아이패드 미니입니다. 상태 좋고 빠른 거래 원합니다.,디지털기기,452000,대학동,37.47558821253176,126.94058279294312,2026-05-14 13:39:03,153,92,35
686,볼캡 사용감 적어요,사당동 인근에서 거래 원합니다. 볼캡 필요하신 분 연락 주세요.,의류,50000,사당동,37.47370623893587,126.98618992679414,2026-05-22 09:17:03,688,41,21
687,요가매트 상태 좋아요,요가매트 상태 양호합니다. 신림동 근처에서 시간 맞춰 거래 가능합니다.,스포츠/레저,35000,신림동,37.48815268177215,126.93103299675055,2026-06-05 16:49:03,187,52,35
688,아기 옷 세트 저렴하게 내놓습니다,아기 옷 세트 상태 양호합니다. 봉천동 근처에서 시간 맞춰 거래 가능합니다.,유아용품,6000,봉천동,37.48732039027607,126.94036376448776,2026-05-07 20:04:03,698,15,22
689,필름 카메라 필요하신 분 가져가세요,낙성대동에서 거래 가능한 필름 카메라입니다. 상태 좋고 빠른 거래 원합니다.,게임/취미,93000,낙성대동,37.47401520764702,126.95379781669665,2026-05-22 05:33:03,207,56,0
690,인문교양서 사용감 적어요,청룡동에서 거래 가능한 인문교양서입니다. 상태 좋고 빠른 거래 원합니다.,도서,24000,청룡동,37.48600119120284,126.95737296506188,2026-05-16 07:41:03,745,28,14
691,애플워치 이사 정리합니다,청룡동에서 거래 가능한 애플워치입니다. 상태 좋고 빠른 거래 원합니다.,디지털기기,220000,청룡동,37.481203256387566,126.94940477096377,2026-05-09 21:07:03,123,35,36
692,백팩 상태 좋아요,백팩 상태 양호합니다. 봉천동 근처에서 시간 맞춰 거래 가능합니다.,의류,26000,봉천동,37.48641003093146,126.94388898866342,2026-05-13 15:24:03,275,72,14
693,정보처리기사 교재 판매합니다,정보처리기사 교재 상태 양호합니다. 대학동 근처에서 시간 맞춰 거래 가능합니다.,도서,24000,대학동,37.474138598115644,126.93502999264543,2026-06-05 03:51:03,699,83,3
694,분유포트 저렴하게 내놓습니다,집 정리하면서 분유포트 내놓습니다. 흑석동에서 직거래 가능합니다.,유아용품,56000,흑석동,37.506579330307126,126.96280062069091,2026-05-20 15:36:03,748,28,3
695,강아지 옷 판매합니다,강아지 옷 판매합니다. 상도동 근처 직거래 가능하고 사용감은 적은 편입니다.,반려동물용품,26000,상도동,37.50438095611107,126.93023820256872,2026-06-02 22:41:03,35,94,14
696,가습기 급처합니다,낙성대동 인근에서 거래 원합니다. 가습기 필요하신 분 연락 주세요.,생활가전,49000,낙성대동,37.47611948943496,126.95384023529832,2026-06-02 20:52:03,109,3,30
697,캠핑 의자 급처합니다,집 정리하면서 캠핑 의자 내놓습니다. 봉천동에서 직거래 가능합니다.,스포츠/레저,40000,봉천동,37.48554111119484,126.94603547577209,2026-05-06 06:39:03,65,42,33
698,디지털 피아노 저렴하게 내놓습니다,디지털 피아노 상태 양호합니다. 흑석동 근처에서 시간 맞춰 거래 가능합니다.,게임/취미,227000,흑석동,37.512700837365365,126.96553363667019,2026-06-03 15:34:03,44,48,20
699,사무용 의자 이사 정리합니다,신림동 인근에서 거래 원합니다. 사무용 의자 필요하신 분 연락 주세요.,가구/인테리어,176000,신림동,37.48479258051606,126.92694916770235,2026-05-16 04:28:03,114,86,3
700,아기 장난감 저렴하게 내놓습니다,아기 장난감 판매합니다. 상도동 근처 직거래 가능하고 사용감은 적은 편입니다.,유아용품,43000,상도동,37.499242090931176,126.93028105740845,2026-05-10 19:53:03,20,58,24
701,Xbox 컨트롤러 사용감 적어요,집 정리하면서 Xbox 컨트롤러 내놓습니다. 신림동에서 직거래 가능합니다.,게임/취미,96000,신림동,37.48515175107668,126.92467544472164,2026-05-25 23:20:03,120,13,0
702,백팩 상태 좋아요,대학동 인근에서 거래 원합니다. 백팩 필요하신 분 연락 주세요.,의류,63000,대학동,37.46697672705926,126.93224070788179,2026-05-20 17:53:03,465,23,15
703,원목 식탁 필요하신 분 가져가세요,사당동 인근에서 거래 원합니다. 원목 식탁 필요하신 분 연락 주세요.,가구/인테리어,348000,사당동,37.474686744144805,126.98002900315606,2026-05-07 23:43:03,159,18,30
704,요가매트 상태 좋아요,요가매트 판매합니다. 신림동 근처 직거래 가능하고 사용감은 적은 편입니다.,스포츠/레저,37000,신림동,37.481154071296494,126.92600371903484,2026-05-09 23:38:03,65,54,22
705,블루종 자켓 사용감 적어요,집 정리하면서 블루종 자켓 내놓습니다. 청룡동에서 직거래 가능합니다.,의류,139000,청룡동,37.48583064889131,126.95386103137281,2026-05-16 19:11:03,882,74,36
