post_id,title,description,category,price,dong,latitude,longitude,created_at,view_count,like_count,chat_count
1,전자레인지 거의 새상품입니다,전자레인지 판매합니다. 청룡동 근처 직거래 가능하고 사용감은 적은 편입니다.,생활가전,81000,청룡동,37.48210492512449,126.94801782679481,2026-05-13 13:02:48,768,69,5
2,공기청정기 급처합니다,공기청정기 상태 양호합니다. 신림동 근처에서 시간 맞춰 거래 가능합니다.,생활가전,111000,신림동,37.48369209046284,126.92678190708232,2026-05-13 20:01:48,568,53,14
3,와이파이 공유기 상태 좋아요,상도동 인근에서 거래 원합니다. 와이파이 공유기 필요하신 분 연락 주세요.,디지털기기,304000,상도동,37.49839927300638,126.92958979380484,2026-06-01 09:57:48,354,13,5
4,헬스 장갑 거의 새상품입니다,집 정리하면서 헬스 장갑 내놓습니다. 신림동에서 직거래 가능합니다.,스포츠/레저,279000,신림동,37.48538519752364,126.93261706900311,2026-06-02 04:40:48,575,37,40
5,레고 세트 저렴하게 내놓습니다,레고 세트 판매합니다. 신림동 근처 직거래 가능하고 사용감은 적은 편입니다.,게임/취미,301000,신림동,37.483734103023686,126.93234110426641,2026-06-03 08:50:48,113,48,17
6,러그 사용감 적어요,청룡동 인근에서 거래 원합니다. 러그 필요하신 분 연락 주세요.,가구/인테리어,369000,청룡동,37.477911386481985,126.9549912679795,2026-05-06 19:04:48,83,77,40
7,옷장 필요하신 분 가져가세요,옷장 상태 양호합니다. 대학동 근처에서 시간 맞춰 거래 가능합니다.,가구/인테리어,122000,대학동,37.46789048071964,126.93212100243905,2026-05-15 05:52:48,796,99,3
8,낚시대 거의 새상품입니다,낚시대 판매합니다. 봉천동 근처 직거래 가능하고 사용감은 적은 편입니다.,스포츠/레저,472000,봉천동,37.484154386652946,126.9405563190106,2026-05-05 21:49:48,745,40,13
9,고양이 화장실 거의 새상품입니다,고양이 화장실 판매합니다. 낙성대동 근처 직거래 가능하고 사용감은 적은 편입니다.,반려동물용품,290000,낙성대동,37.4757940050514,126.95579320759158,2026-05-19 07:58:48,608,54,37
10,화장대 이사 정리합니다,봉천동에서 거래 가능한 화장대입니다. 상태 좋고 빠른 거래 원합니다.,가구/인테리어,450000,봉천동,37.48356409030732,126.94044767311674,2026-06-02 12:05:48,173,87,27
11,디지털 피아노 거의 새상품입니다,신림동에서 거래 가능한 디지털 피아노입니다. 상태 좋고 빠른 거래 원합니다.,게임/취미,554000,신림동,37.48213500128647,126.92558157754345,2026-05-12 07:56:48,666,43,7
12,보조배터리 거의 새상품입니다,보조배터리 상태 양호합니다. 낙성대동 근처에서 시간 맞춰 거래 가능합니다.,디지털기기,128000,낙성대동,37.47788970211438,126.9551283926855,2026-05-08 20:26:48,871,81,32
13,전신거울 판매합니다,집 정리하면서 전신거울 내놓습니다. 사당동에서 직거래 가능합니다.,가구/인테리어,19000,사당동,37.47217925166494,126.98538009599204,2026-06-02 04:49:48,861,39,15
14,전기포트 이사 정리합니다,전기포트 상태 양호합니다. 봉천동 근처에서 시간 맞춰 거래 가능합니다.,생활가전,74000,봉천동,37.4802505662894,126.94532433041084,2026-05-31 19:15:48,979,70,10
15,아기 식탁의자 급처합니다,집 정리하면서 아기 식탁의자 내놓습니다. 대학동에서 직거래 가능합니다.,유아용품,348000,대학동,37.46681004195868,126.93404697337031,2026-05-16 05:17:48,931,66,28
16,요가매트 급처합니다,청룡동에서 거래 가능한 요가매트입니다. 상태 좋고 빠른 거래 원합니다.,스포츠/레저,41000,청룡동,37.48479635400254,126.94840857349888,2026-05-13 20:42:48,244,8,2
17,슬랙스 이사 정리합니다,슬랙스 상태 양호합니다. 청룡동 근처에서 시간 맞춰 거래 가능합니다.,의류,38000,청룡동,37.48092972942945,126.95177059961485,2026-05-12 22:09:48,494,31,50
18,캡슐 커피머신 필요하신 분 가져가세요,집 정리하면서 캡슐 커피머신 내놓습니다. 사당동에서 직거래 가능합니다.,생활가전,220000,사당동,37.472584178711514,126.98062621282102,2026-05-21 17:42:48,699,83,41
19,푸쉬업바 급처합니다,푸쉬업바 판매합니다. 청룡동 근처 직거래 가능하고 사용감은 적은 편입니다.,스포츠/레저,279000,청룡동,37.47869806447882,126.95693265599276,2026-05-22 12:18:48,197,35,29
20,물그릇 저렴하게 내놓습니다,물그릇 상태 양호합니다. 신림동 근처에서 시간 맞춰 거래 가능합니다.,반려동물용품,10000,신림동,37.481337472991996,126.9280104029255,2026-06-03 09:35:48,426,62,30
21,아이패드 미니 필요하신 분 가져가세요,집 정리하면서 아이패드 미니 내놓습니다. 신림동에서 직거래 가능합니다.,디지털기기,291000,신림동,37.489154226894925,126.92955768323405,2026-05-07 02:27:48,443,89,46
22,고양이 화장실 급처합니다,고양이 화장실 판매합니다. 대학동 근처 직거래 가능하고 사용감은 적은 편입니다.,반려동물용품,32000,대학동,37.466171652729074,126.9376417759446,2026-05-17 17:11:48,72,95,20
23,쿠션 상태 좋아요,쿠션 상태 양호합니다. 신림동 근처에서 시간 맞춰 거래 가능합니다.,생활용품,23000,신림동,37.4878181920197,126.92803775551319,2026-05-09 11:41:48,619,8,43
24,피규어 판매합니다,집 정리하면서 피규어 내놓습니다. 봉천동에서 직거래 가능합니다.,게임/취미,583000,봉천동,37.48476191800789,126.93898685952615,2026-05-20 05:46:48,277,26,42
25,아기 침대 거의 새상품입니다,흑석동 인근에서 거래 원합니다. 아기 침대 필요하신 분 연락 주세요.,유아용품,389000,흑석동,37.51376096447855,126.959332607211,2026-05-07 14:45:48,479,79,36
26,로퍼 거의 새상품입니다,낙성대동 인근에서 거래 원합니다. 로퍼 필요하신 분 연락 주세요.,의류,230000,낙성대동,37.4801374495464,126.96063539925088,2026-06-03 09:22:48,301,20,28
27,캘리그라피 세트 판매합니다,대학동에서 거래 가능한 캘리그라피 세트입니다. 상태 좋고 빠른 거래 원합니다.,게임/취미,142000,대학동,37.46715447909775,126.93461756271458,2026-05-28 12:49:48,119,95,35
28,원피스 급처합니다,원피스 상태 양호합니다. 대학동 근처에서 시간 맞춰 거래 가능합니다.,의류,130000,대학동,37.46604086761799,126.93513556538606,2026-05-28 15:40:48,659,54,17
29,좌식 테이블 상태 좋아요,좌식 테이블 상태 양호합니다. 흑석동 근처에서 시간 맞춰 거래 가능합니다.,가구/인테리어,371000,흑석동,37.5128392857156,126.96405590289206,2026-05-22 23:45:48,124,9,44
30,골프채 상태 좋아요,골프채 판매합니다. 상도동 근처 직거래 가능하고 사용감은 적은 편입니다.,스포츠/레저,26000,상도동,37.4967007653834,126.92849529739223,2026-05-27 04:48:48,965,5,22
31,로봇청소기 필요하신 분 가져가세요,로봇청소기 판매합니다. 낙성대동 근처 직거래 가능하고 사용감은 적은 편입니다.,생활가전,93000,낙성대동,37.47916564471755,126.95692185467946,2026-05-11 10:49:48,432,3,11
32,놀이매트 급처합니다,놀이매트 판매합니다. 대학동 근처 직거래 가능하고 사용감은 적은 편입니다.,유아용품,364000,대학동,37.46759572830025,126.9409845190123,2026-06-02 03:50:48,49,60,14
33,캠핑 테이블 급처합니다,청룡동에서 거래 가능한 캠핑 테이블입니다. 상태 좋고 빠른 거래 원합니다.,스포츠/레저,342000,청룡동,37.47899124992722,126.95411481738607,2026-05-30 04:24:48,295,8,49
34,기저귀 정리함 사용감 적어요,신림동에서 거래 가능한 기저귀 정리함입니다. 상태 좋고 빠른 거래 원합니다.,유아용품,138000,신림동,37.48354563758565,126.93128545060652,2026-05-30 22:29:48,49,13,38
35,자전거 헬멧 저렴하게 내놓습니다,자전거 헬멧 상태 양호합니다. 상도동 근처에서 시간 맞춰 거래 가능합니다.,스포츠/레저,102000,상도동,37.50385575165499,126.93138451997092,2026-05-28 15:00:48,456,0,33
36,가디건 필요하신 분 가져가세요,봉천동 인근에서 거래 원합니다. 가디건 필요하신 분 연락 주세요.,의류,164000,봉천동,37.48267122504035,126.94326892904105,2026-05-25 18:51:48,137,92,19
37,낚시대 거의 새상품입니다,낚시대 판매합니다. 낙성대동 근처 직거래 가능하고 사용감은 적은 편입니다.,스포츠/레저,220000,낙성대동,37.47749105254866,126.95766075168758,2026-05-15 04:02:48,776,22,39
38,갤럭시워치 거의 새상품입니다,집 정리하면서 갤럭시워치 내놓습니다. 청룡동에서 직거래 가능합니다.,디지털기기,824000,청룡동,37.48062159799305,126.94983701400989,2026-05-17 21:04:48,339,59,28
39,물그릇 상태 좋아요,봉천동 인근에서 거래 원합니다. 물그릇 필요하신 분 연락 주세요.,반려동물용품,266000,봉천동,37.47994868598526,126.93970419464294,2026-05-14 20:06:48,353,11,48
40,맨투맨 판매합니다,맨투맨 판매합니다. 신림동 근처 직거래 가능하고 사용감은 적은 편입니다.,의류,126000,신림동,37.4811443523674,126.93096354250491,2026-05-17 14:16:48,434,80,36
41,고양이 장난감 급처합니다,낙성대동에서 거래 가능한 고양이 장난감입니다. 상태 좋고 빠른 거래 원합니다.,반려동물용품,57000,낙성대동,37.47644549884574,126.95917405794034,2026-05-12 03:31:48,190,89,33
42,전기히터 상태 좋아요,전기히터 상태 양호합니다. 흑석동 근처에서 시간 맞춰 거래 가능합니다.,생활가전,296000,흑석동,37.511950065073314,126.96752020296341,2026-05-17 05:57:48,922,56,39
43,아기 그림책 이사 정리합니다,집 정리하면서 아기 그림책 내놓습니다. 낙성대동에서 직거래 가능합니다.,유아용품,235000,낙성대동,37.47957674835334,126.9584459701707,2026-05-28 08:52:48,662,35,49
44,슬랙스 이사 정리합니다,봉천동 인근에서 거래 원합니다. 슬랙스 필요하신 분 연락 주세요.,의류,65000,봉천동,37.478983740615156,126.93891261479727,2026-05-28 06:25:48,924,69,5
45,싱글 매트리스 저렴하게 내놓습니다,집 정리하면서 싱글 매트리스 내놓습니다. 상도동에서 직거래 가능합니다.,가구/인테리어,179000,상도동,37.49849476812667,126.93369795772314,2026-05-19 02:19:48,73,26,26
46,와이파이 공유기 필요하신 분 가져가세요,흑석동에서 거래 가능한 와이파이 공유기입니다. 상태 좋고 빠른 거래 원합니다.,디지털기기,380000,흑석동,37.511275156689784,126.96406132309734,2026-05-27 03:51:48,923,53,34
47,피규어 이사 정리합니다,청룡동 인근에서 거래 원합니다. 피규어 필요하신 분 연락 주세요.,게임/취미,451000,청룡동,37.4841814232442,126.95494181377627,2026-05-21 16:21:48,354,85,43
48,스크래쳐 상태 좋아요,집 정리하면서 스크래쳐 내놓습니다. 신림동에서 직거래 가능합니다.,반려동물용품,291000,신림동,37.48786851355595,126.92581729026513,2026-05-15 16:40:48,668,54,8
49,경제 경영 도서 사용감 적어요,집 정리하면서 경제 경영 도서 내놓습니다. 청룡동에서 직거래 가능합니다.,도서,44000,청룡동,37.48454910914912,126.95240306836213,2026-05-26 04:28:48,780,53,16
50,냄비 세트 사용감 적어요,청룡동에서 거래 가능한 냄비 세트입니다. 상태 좋고 빠른 거래 원합니다.,생활용품,13000,청룡동,37.47772382345785,126.94896220974873,2026-05-12 16:30:48,214,2,39
51,인덕션 급처합니다,흑석동 인근에서 거래 원합니다. 인덕션 필요하신 분 연락 주세요.,생활가전,198000,흑석동,37.50494532871379,126.9667930117431,2026-05-30 21:07:48,996,95,45
52,자바 기본서 판매합니다,자바 기본서 상태 양호합니다. 대학동 근처에서 시간 맞춰 거래 가능합니다.,도서,51000,대학동,37.4739057163378,126.93422849380538,2026-05-23 18:33:48,87,75,44
53,코딩 테스트 책 저렴하게 내놓습니다,신림동 인근에서 거래 원합니다. 코딩 테스트 책 필요하신 분 연락 주세요.,도서,71000,신림동,37.48261231174862,126.93249575627,2026-05-22 19:22:48,80,64,41
54,고양이 캣타워 필요하신 분 가져가세요,집 정리하면서 고양이 캣타워 내놓습니다. 사당동에서 직거래 가능합니다.,반려동물용품,81000,사당동,37.47775912354054,126.98579617656902,2026-05-23 10:59:48,544,83,17
55,강아지 장난감 필요하신 분 가져가세요,대학동 인근에서 거래 원합니다. 강아지 장난감 필요하신 분 연락 주세요.,반려동물용품,128000,대학동,37.47310476281827,126.93749849644679,2026-05-10 14:28:48,912,57,15
56,젖병 소독기 판매합니다,흑석동 인근에서 거래 원합니다. 젖병 소독기 필요하신 분 연락 주세요.,유아용품,98000,흑석동,37.50659658488038,126.96456155007938,2026-05-21 10:23:48,826,33,21
57,소설책 세트 판매합니다,청룡동에서 거래 가능한 소설책 세트입니다. 상태 좋고 빠른 거래 원합니다.,도서,33000,청룡동,37.48310609339447,126.95415902899741,2026-05-13 03:14:48,578,97,15
58,강아지 장난감 판매합니다,봉천동 인근에서 거래 원합니다. 강아지 장난감 필요하신 분 연락 주세요.,반려동물용품,116000,봉천동,37.48129020450661,126.94213472955009,2026-05-23 18:30:48,323,84,37
59,자전거 헬멧 사용감 적어요,집 정리하면서 자전거 헬멧 내놓습니다. 사당동에서 직거래 가능합니다.,스포츠/레저,143000,사당동,37.474755479440056,126.98402881063639,2026-05-27 08:31:48,133,92,12
60,싱글 매트리스 급처합니다,흑석동 인근에서 거래 원합니다. 싱글 매트리스 필요하신 분 연락 주세요.,가구/인테리어,380000,흑석동,37.50676246463265,126.9622088106915,2026-05-18 00:07:48,299,12,12
61,파이썬 입문서 상태 좋아요,대학동에서 거래 가능한 파이썬 입문서입니다. 상태 좋고 빠른 거래 원합니다.,도서,9000,대학동,37.47428461197263,126.93670878694525,2026-05-19 07:01:48,976,16,40
62,맥북 에어 거의 새상품입니다,집 정리하면서 맥북 에어 내놓습니다. 흑석동에서 직거래 가능합니다.,디지털기기,471000,흑석동,37.512021156452995,126.96260707442252,2026-05-26 11:42:48,268,61,7
63,인덕션 판매합니다,인덕션 판매합니다. 낙성대동 근처 직거래 가능하고 사용감은 적은 편입니다.,생활가전,298000,낙성대동,37.47944443445326,126.95966317651244,2026-05-06 07:40:48,264,15,35
64,피규어 필요하신 분 가져가세요,집 정리하면서 피규어 내놓습니다. 흑석동에서 직거래 가능합니다.,게임/취미,309000,흑석동,37.504402303043726,126.96820108777435,2026-05-08 22:18:48,322,72,39
65,공기청정기 급처합니다,대학동에서 거래 가능한 공기청정기입니다. 상태 좋고 빠른 거래 원합니다.,생활가전,90000,대학동,37.469685175726596,126.93869371135786,2026-05-29 11:10:48,86,20,0
66,반려동물 이동장 판매합니다,청룡동 인근에서 거래 원합니다. 반려동물 이동장 필요하신 분 연락 주세요.,반려동물용품,147000,청룡동,37.484078280266466,126.95395058007163,2026-05-14 02:41:48,713,29,16
67,반팔 티셔츠 저렴하게 내놓습니다,반팔 티셔츠 판매합니다. 청룡동 근처 직거래 가능하고 사용감은 적은 편입니다.,의류,237000,청룡동,37.479276118126144,126.9551895772207,2026-05-28 12:41:48,71,21,50
68,입문용 드론 이사 정리합니다,집 정리하면서 입문용 드론 내놓습니다. 봉천동에서 직거래 가능합니다.,게임/취미,316000,봉천동,37.481977588635715,126.9425803666204,2026-05-14 04:28:48,522,69,31
69,아기 욕조 사용감 적어요,대학동에서 거래 가능한 아기 욕조입니다. 상태 좋고 빠른 거래 원합니다.,유아용품,51000,대학동,37.47510786277806,126.94179572416878,2026-05-28 18:52:48,891,73,37
70,에세이 판매합니다,집 정리하면서 에세이 내놓습니다. 낙성대동에서 직거래 가능합니다.,도서,69000,낙성대동,37.476158849870764,126.96174244944541,2026-05-16 01:47:48,294,23,37
71,전기장판 사용감 적어요,상도동 인근에서 거래 원합니다. 전기장판 필요하신 분 연락 주세요.,생활가전,174000,상도동,37.50153673673984,126.92888217795361,2026-05-15 12:51:48,174,42,26
72,아기 그림책 판매합니다,흑석동에서 거래 가능한 아기 그림책입니다. 상태 좋고 빠른 거래 원합니다.,유아용품,166000,흑석동,37.51204927203269,126.95861151067449,2026-05-28 06:38:48,801,51,32
73,방향제 필요하신 분 가져가세요,방향제 판매합니다. 신림동 근처 직거래 가능하고 사용감은 적은 편입니다.,생활용품,135000,신림동,37.48679990536061,126.9260355823835,2026-05-24 20:57:48,520,80,28
74,빨래 건조대 거의 새상품입니다,집 정리하면서 빨래 건조대 내놓습니다. 흑석동에서 직거래 가능합니다.,생활용품,34000,흑석동,37.50538378163805,126.96410839007002,2026-06-04 20:07:48,828,30,45
75,디퓨저 저렴하게 내놓습니다,청룡동에서 거래 가능한 디퓨저입니다. 상태 좋고 빠른 거래 원합니다.,생활용품,121000,청룡동,37.485526530599344,126.95061861560261,2026-05-06 13:04:48,862,19,31
76,경제 경영 도서 이사 정리합니다,경제 경영 도서 판매합니다. 흑석동 근처 직거래 가능하고 사용감은 적은 편입니다.,도서,61000,흑석동,37.51126292545492,126.95996508344591,2026-05-19 12:21:48,205,76,32
77,제습기 필요하신 분 가져가세요,제습기 상태 양호합니다. 사당동 근처에서 시간 맞춰 거래 가능합니다.,생활가전,146000,사당동,37.47739923383883,126.98319940753055,2026-05-10 16:27:48,753,38,37
78,옷장 이사 정리합니다,사당동 인근에서 거래 원합니다. 옷장 필요하신 분 연락 주세요.,가구/인테리어,292000,사당동,37.48140774631332,126.97898805544166,2026-05-11 23:21:48,476,41,12
79,아기 식탁의자 필요하신 분 가져가세요,신림동 인근에서 거래 원합니다. 아기 식탁의자 필요하신 분 연락 주세요.,유아용품,386000,신림동,37.48908414001939,126.931923936607,2026-05-20 17:47:48,840,48,24
80,협탁 판매합니다,협탁 상태 양호합니다. 낙성대동 근처에서 시간 맞춰 거래 가능합니다.,가구/인테리어,312000,낙성대동,37.477059510868074,126.95816928074474,2026-05-26 12:50:48,875,56,6
81,행거 상태 좋아요,집 정리하면서 행거 내놓습니다. 봉천동에서 직거래 가능합니다.,가구/인테리어,410000,봉천동,37.47840315320579,126.93988565588982,2026-05-28 06:06:48,719,50,41
82,멀티탭 사용감 적어요,멀티탭 상태 양호합니다. 흑석동 근처에서 시간 맞춰 거래 가능합니다.,생활용품,12000,흑석동,37.513774259229564,126.96606766366737,2026-05-17 14:30:48,656,87,18
83,카시트 저렴하게 내놓습니다,카시트 판매합니다. 흑석동 근처 직거래 가능하고 사용감은 적은 편입니다.,유아용품,360000,흑석동,37.507384633423,126.96290686787856,2026-05-27 16:43:48,342,7,18
84,로퍼 필요하신 분 가져가세요,로퍼 판매합니다. 낙성대동 근처 직거래 가능하고 사용감은 적은 편입니다.,의류,49000,낙성대동,37.47420829791856,126.96272829016024,2026-06-02 20:50:48,401,79,43
85,3인용 소파 이사 정리합니다,집 정리하면서 3인용 소파 내놓습니다. 대학동에서 직거래 가능합니다.,가구/인테리어,140000,대학동,37.47237610885699,126.93337975622072,2026-05-15 15:48:48,833,59,18
86,강아지 옷 거의 새상품입니다,상도동 인근에서 거래 원합니다. 강아지 옷 필요하신 분 연락 주세요.,반려동물용품,236000,상도동,37.49697205701928,126.9317192269235,2026-05-09 07:33:48,403,61,6
87,입문용 드론 거의 새상품입니다,집 정리하면서 입문용 드론 내놓습니다. 신림동에서 직거래 가능합니다.,게임/취미,286000,신림동,37.48893602816828,126.93310616953718,2026-06-04 21:50:48,712,99,47
88,배변패드 거의 새상품입니다,배변패드 상태 양호합니다. 청룡동 근처에서 시간 맞춰 거래 가능합니다.,반려동물용품,183000,청룡동,37.48375577323742,126.95537470774495,2026-05-28 20:33:48,645,32,43
89,책장 판매합니다,집 정리하면서 책장 내놓습니다. 대학동에서 직거래 가능합니다.,가구/인테리어,27000,대학동,37.46886719125714,126.9359550309342,2026-05-18 04:59:48,144,11,18
90,맨투맨 사용감 적어요,맨투맨 판매합니다. 대학동 근처 직거래 가능하고 사용감은 적은 편입니다.,의류,70000,대학동,37.473642325386045,126.93648331388853,2026-05-07 00:54:48,312,95,21
91,믹서기 급처합니다,믹서기 상태 양호합니다. 상도동 근처에서 시간 맞춰 거래 가능합니다.,생활가전,197000,상도동,37.49914786027734,126.93272828381873,2026-06-03 04:45:48,280,68,7
92,에세이 필요하신 분 가져가세요,사당동에서 거래 가능한 에세이입니다. 상태 좋고 빠른 거래 원합니다.,도서,32000,사당동,37.48075255908743,126.97881367200074,2026-05-21 16:06:48,915,71,20
93,전기히터 거의 새상품입니다,상도동에서 거래 가능한 전기히터입니다. 상태 좋고 빠른 거래 원합니다.,생활가전,81000,상도동,37.496948000324316,126.93137546605882,2026-06-04 15:26:48,514,14,6
94,블록 장난감 사용감 적어요,블록 장난감 상태 양호합니다. 상도동 근처에서 시간 맞춰 거래 가능합니다.,유아용품,385000,상도동,37.502936930832966,126.9321565221405,2026-05-13 11:49:48,434,83,6
95,파이썬 입문서 사용감 적어요,집 정리하면서 파이썬 입문서 내놓습니다. 청룡동에서 직거래 가능합니다.,도서,59000,청룡동,37.47987334958497,126.95671696212423,2026-05-06 08:51:48,381,12,43
96,덤벨 세트 필요하신 분 가져가세요,덤벨 세트 판매합니다. 대학동 근처 직거래 가능하고 사용감은 적은 편입니다.,스포츠/레저,500000,대학동,37.47199492918529,126.94151093312065,2026-06-02 02:40:48,688,27,41
97,에어팟 프로 급처합니다,에어팟 프로 상태 양호합니다. 낙성대동 근처에서 시간 맞춰 거래 가능합니다.,디지털기기,230000,낙성대동,37.47508559553432,126.95507554179942,2026-06-02 23:32:48,610,27,14
98,닌텐도 스위치 거의 새상품입니다,닌텐도 스위치 판매합니다. 낙성대동 근처 직거래 가능하고 사용감은 적은 편입니다.,게임/취미,558000,낙성대동,37.4719486032723,126.96149984664235,2026-05-28 11:38:48,686,3,8
99,백팩 사용감 적어요,백팩 판매합니다. 신림동 근처 직거래 가능하고 사용감은 적은 편입니다.,의류,72000,신림동,37.48665665275034,126.92876245965424,2026-06-04 11:58:48,441,67,7
100,축구공 저렴하게 내놓습니다,축구공 상태 양호합니다. 흑석동 근처에서 시간 맞춰 거래 가능합니다.,스포츠/레저,118000,흑석동,37.50901451214713,126.96318042522098,2026-05-05 21:43:48,754,100,42
101,아이폰 14 이사 정리합니다,집 정리하면서 아이폰 14 내놓습니다. 상도동에서 직거래 가능합니다.,디지털기기,722000,상도동,37.50359266765123,126.92922111819746,2026-06-02 01:00:48,941,56,4
102,게이밍 의자 상태 좋아요,게이밍 의자 상태 양호합니다. 대학동 근처에서 시간 맞춰 거래 가능합니다.,가구/인테리어,334000,대학동,37.47090556837431,126.93633715417576,2026-05-17 23:00:48,342,48,38
103,우쿨렐레 저렴하게 내놓습니다,우쿨렐레 상태 양호합니다. 봉천동 근처에서 시간 맞춰 거래 가능합니다.,게임/취미,225000,봉천동,37.4858741922478,126.94058730184257,2026-05-23 01:49:48,243,52,21
104,무선청소기 필요하신 분 가져가세요,사당동 인근에서 거래 원합니다. 무선청소기 필요하신 분 연락 주세요.,생활가전,201000,사당동,37.47251224788366,126.97745364357331,2026-05-06 12:02:48,955,60,4
105,카시트 사용감 적어요,카시트 상태 양호합니다. 낙성대동 근처에서 시간 맞춰 거래 가능합니다.,유아용품,35000,낙성대동,37.47590808632922,126.96233607372234,2026-05-17 23:10:48,347,85,7
106,아기 그림책 판매합니다,아기 그림책 상태 양호합니다. 대학동 근처에서 시간 맞춰 거래 가능합니다.,유아용품,164000,대학동,37.47216736302988,126.93404244869109,2026-05-25 13:09:48,529,27,9
107,로봇청소기 사용감 적어요,봉천동 인근에서 거래 원합니다. 로봇청소기 필요하신 분 연락 주세요.,생활가전,303000,봉천동,37.48373573280535,126.94302699163829,2026-05-29 02:51:48,584,98,39
108,삼성 노트북 거의 새상품입니다,삼성 노트북 판매합니다. 신림동 근처 직거래 가능하고 사용감은 적은 편입니다.,디지털기기,299000,신림동,37.48101405558213,126.92543251490342,2026-05-14 06:47:48,357,44,0
109,카시트 상태 좋아요,신림동에서 거래 가능한 카시트입니다. 상태 좋고 빠른 거래 원합니다.,유아용품,387000,신림동,37.48077409275845,126.92711637369705,2026-05-20 10:21:48,439,58,21
110,골프채 저렴하게 내놓습니다,골프채 판매합니다. 신림동 근처 직거래 가능하고 사용감은 적은 편입니다.,스포츠/레저,85000,신림동,37.4836311297433,126.92824014773113,2026-05-11 21:42:48,700,10,17
111,디지털 피아노 필요하신 분 가져가세요,디지털 피아노 판매합니다. 대학동 근처 직거래 가능하고 사용감은 적은 편입니다.,게임/취미,529000,대학동,37.4723848625476,126.93666632753364,2026-06-02 05:18:48,123,36,43
112,파이썬 입문서 급처합니다,파이썬 입문서 상태 양호합니다. 상도동 근처에서 시간 맞춰 거래 가능합니다.,도서,10000,상도동,37.495972348052575,126.92855519504022,2026-06-05 10:26:48,978,27,49
113,푸쉬업바 판매합니다,집 정리하면서 푸쉬업바 내놓습니다. 흑석동에서 직거래 가능합니다.,스포츠/레저,94000,흑석동,37.50938723567675,126.96528048171746,2026-06-01 04:11:48,730,29,32
114,아령 필요하신 분 가져가세요,집 정리하면서 아령 내놓습니다. 신림동에서 직거래 가능합니다.,스포츠/레저,14000,신림동,37.48493399680886,126.93109498961569,2026-05-22 13:50:48,330,73,27
115,분유포트 저렴하게 내놓습니다,상도동에서 거래 가능한 분유포트입니다. 상태 좋고 빠른 거래 원합니다.,유아용품,171000,상도동,37.49548129881298,126.93444484359814,2026-05-30 21:16:48,861,88,23
116,반팔 티셔츠 필요하신 분 가져가세요,집 정리하면서 반팔 티셔츠 내놓습니다. 봉천동에서 직거래 가능합니다.,의류,227000,봉천동,37.47928132708046,126.94170483284542,2026-05-26 17:24:48,236,42,49
117,미니 냉장고 급처합니다,사당동 인근에서 거래 원합니다. 미니 냉장고 필요하신 분 연락 주세요.,생활가전,382000,사당동,37.473064442182775,126.97857271802825,2026-05-05 19:53:48,161,30,6
118,게임 패드 저렴하게 내놓습니다,집 정리하면서 게임 패드 내놓습니다. 낙성대동에서 직거래 가능합니다.,게임/취미,480000,낙성대동,37.48104154258385,126.95924491783403,2026-05-11 21:57:48,603,57,43
119,카메라 삼각대 사용감 적어요,집 정리하면서 카메라 삼각대 내놓습니다. 낙성대동에서 직거래 가능합니다.,게임/취미,74000,낙성대동,37.47236172120213,126.9586733688529,2026-05-21 02:05:48,320,35,37
120,자기계발서 이사 정리합니다,신림동에서 거래 가능한 자기계발서입니다. 상태 좋고 빠른 거래 원합니다.,도서,50000,신림동,37.48514079818629,126.92784482476583,2026-05-10 07:41:48,670,11,39
121,퍼즐 판매합니다,퍼즐 상태 양호합니다. 흑석동 근처에서 시간 맞춰 거래 가능합니다.,게임/취미,197000,흑석동,37.508305231090155,126.96670966811323,2026-05-25 21:15:48,523,19,3
122,아령 상태 좋아요,아령 판매합니다. 신림동 근처 직거래 가능하고 사용감은 적은 편입니다.,스포츠/레저,367000,신림동,37.482838979596856,126.93317936789117,2026-05-22 02:12:48,545,78,10
123,아기 장난감 사용감 적어요,신림동 인근에서 거래 원합니다. 아기 장난감 필요하신 분 연락 주세요.,유아용품,38000,신림동,37.48171995784966,126.93251566259984,2026-05-26 13:10:48,704,49,18
124,게임 패드 사용감 적어요,게임 패드 상태 양호합니다. 봉천동 근처에서 시간 맞춰 거래 가능합니다.,게임/취미,149000,봉천동,37.48422135156929,126.93788951658271,2026-05-07 05:26:48,1000,83,44
125,선풍기 필요하신 분 가져가세요,선풍기 판매합니다. 사당동 근처 직거래 가능하고 사용감은 적은 편입니다.,생활가전,353000,사당동,37.478060248207335,126.98083406366322,2026-05-13 17:02:48,944,67,5
126,요가매트 사용감 적어요,요가매트 판매합니다. 대학동 근처 직거래 가능하고 사용감은 적은 편입니다.,스포츠/레저,491000,대학동,37.475599766211026,126.93334945172946,2026-05-30 05:56:48,507,24,14
127,코딩 테스트 책 저렴하게 내놓습니다,신림동 인근에서 거래 원합니다. 코딩 테스트 책 필요하신 분 연락 주세요.,도서,19000,신림동,37.48691097813731,126.9320904371964,2026-05-17 04:36:48,176,23,44
128,옷장 판매합니다,상도동 인근에서 거래 원합니다. 옷장 필요하신 분 연락 주세요.,가구/인테리어,356000,상도동,37.50208536518095,126.93048927963034,2026-05-13 09:17:48,635,36,48
129,화장품 정리함 거의 새상품입니다,화장품 정리함 판매합니다. 흑석동 근처 직거래 가능하고 사용감은 적은 편입니다.,생활용품,97000,흑석동,37.5115812403725,126.96362906691488,2026-05-14 22:17:48,482,98,18
130,아기 침대 급처합니다,낙성대동 인근에서 거래 원합니다. 아기 침대 필요하신 분 연락 주세요.,유아용품,31000,낙성대동,37.47891400977119,126.95875909387553,2026-05-16 00:50:48,390,70,6
131,선풍기 저렴하게 내놓습니다,낙성대동 인근에서 거래 원합니다. 선풍기 필요하신 분 연락 주세요.,생활가전,240000,낙성대동,37.481264132630116,126.95582038006907,2026-05-08 00:36:48,860,55,5
132,스크래쳐 사용감 적어요,집 정리하면서 스크래쳐 내놓습니다. 신림동에서 직거래 가능합니다.,반려동물용품,30000,신림동,37.48294912673418,126.92428187545528,2026-05-24 00:22:48,251,49,5
133,무선청소기 상태 좋아요,낙성대동에서 거래 가능한 무선청소기입니다. 상태 좋고 빠른 거래 원합니다.,생활가전,156000,낙성대동,37.478855361752885,126.95808601473982,2026-05-07 01:01:48,861,17,48
134,아이폰 SE 판매합니다,아이폰 SE 판매합니다. 대학동 근처 직거래 가능하고 사용감은 적은 편입니다.,디지털기기,875000,대학동,37.46671186860324,126.9346810157804,2026-05-31 22:59:48,633,67,27
135,자바 기본서 판매합니다,집 정리하면서 자바 기본서 내놓습니다. 청룡동에서 직거래 가능합니다.,도서,61000,청룡동,37.481560537843144,126.95401954942012,2026-06-03 12:52:48,936,63,38
136,피규어 상태 좋아요,집 정리하면서 피규어 내놓습니다. 대학동에서 직거래 가능합니다.,게임/취미,6000,대학동,37.47224371301742,126.93265613954988,2026-05-17 05:30:48,594,53,11
137,아령 판매합니다,집 정리하면서 아령 내놓습니다. 상도동에서 직거래 가능합니다.,스포츠/레저,27000,상도동,37.49817093876515,126.92667559557742,2026-05-16 04:22:48,269,95,1
138,나이키 후드티 사용감 적어요,낙성대동에서 거래 가능한 나이키 후드티입니다. 상태 좋고 빠른 거래 원합니다.,의류,95000,낙성대동,37.478646825664086,126.9634081918579,2026-05-19 05:53:48,668,22,49
139,하네스 상태 좋아요,낙성대동에서 거래 가능한 하네스입니다. 상태 좋고 빠른 거래 원합니다.,반려동물용품,237000,낙성대동,37.474955958200496,126.95670075882937,2026-06-04 07:33:48,54,25,2
140,아기 그림책 이사 정리합니다,대학동에서 거래 가능한 아기 그림책입니다. 상태 좋고 빠른 거래 원합니다.,유아용품,390000,대학동,37.47425798277078,126.93511924686382,2026-05-16 10:27:48,375,99,3
141,로봇청소기 필요하신 분 가져가세요,집 정리하면서 로봇청소기 내놓습니다. 상도동에서 직거래 가능합니다.,생활가전,207000,상도동,37.503843104666274,126.93119275853535,2026-05-26 11:14:48,718,63,23
142,고데기 저렴하게 내놓습니다,고데기 상태 양호합니다. 상도동 근처에서 시간 맞춰 거래 가능합니다.,생활가전,102000,상도동,37.50120919221458,126.9290649585609,2026-05-19 07:25:48,115,10,20
143,우쿨렐레 상태 좋아요,흑석동 인근에서 거래 원합니다. 우쿨렐레 필요하신 분 연락 주세요.,게임/취미,462000,흑석동,37.51378150597773,126.96134555360075,2026-06-03 16:50:48,943,45,39
144,아이폰 SE 필요하신 분 가져가세요,아이폰 SE 상태 양호합니다. 사당동 근처에서 시간 맞춰 거래 가능합니다.,디지털기기,840000,사당동,37.4800866930997,126.98338088871995,2026-05-12 19:35:48,985,3,9
145,강아지 하우스 상태 좋아요,강아지 하우스 판매합니다. 봉천동 근처 직거래 가능하고 사용감은 적은 편입니다.,반려동물용품,190000,봉천동,37.48439062056913,126.94608823529265,2026-05-25 04:09:48,43,77,9
146,배드민턴 라켓 저렴하게 내놓습니다,배드민턴 라켓 상태 양호합니다. 낙성대동 근처에서 시간 맞춰 거래 가능합니다.,스포츠/레저,192000,낙성대동,37.47205913340864,126.95546048049474,2026-05-24 06:04:48,295,31,7
147,멀티탭 저렴하게 내놓습니다,대학동 인근에서 거래 원합니다. 멀티탭 필요하신 분 연락 주세요.,생활용품,117000,대학동,37.46682637421904,126.94032826290385,2026-05-29 21:27:48,720,62,12
148,고양이 화장실 이사 정리합니다,봉천동 인근에서 거래 원합니다. 고양이 화장실 필요하신 분 연락 주세요.,반려동물용품,180000,봉천동,37.48611362050753,126.94371809104007,2026-05-14 14:10:48,565,37,19
149,러그 급처합니다,러그 판매합니다. 봉천동 근처 직거래 가능하고 사용감은 적은 편입니다.,가구/인테리어,415000,봉천동,37.4831402143726,126.940289111655,2026-06-01 08:55:48,515,3,23
150,빨래 건조대 저렴하게 내놓습니다,봉천동 인근에서 거래 원합니다. 빨래 건조대 필요하신 분 연락 주세요.,생활용품,104000,봉천동,37.481694335274646,126.94234900508476,2026-05-13 17:15:48,548,52,49
151,스탠드 조명 저렴하게 내놓습니다,집 정리하면서 스탠드 조명 내놓습니다. 흑석동에서 직거래 가능합니다.,가구/인테리어,358000,흑석동,37.51019793929367,126.96041963136553,2026-05-20 05:37:48,909,99,35
152,행거 판매합니다,행거 상태 양호합니다. 봉천동 근처에서 시간 맞춰 거래 가능합니다.,가구/인테리어,88000,봉천동,37.48106023082342,126.94600904054931,2026-05-27 11:35:48,340,90,14
153,코딩 테스트 책 저렴하게 내놓습니다,코딩 테스트 책 판매합니다. 대학동 근처 직거래 가능하고 사용감은 적은 편입니다.,도서,73000,대학동,37.466534284068835,126.938209874273,2026-05-28 12:05:48,320,78,34
154,만화책 세트 상태 좋아요,만화책 세트 상태 양호합니다. 낙성대동 근처에서 시간 맞춰 거래 가능합니다.,게임/취미,350000,낙성대동,37.47225461803291,126.96001453733825,2026-05-09 22:43:48,855,3,5
155,프라모델 급처합니다,프라모델 상태 양호합니다. 상도동 근처에서 시간 맞춰 거래 가능합니다.,게임/취미,36000,상도동,37.49942944818176,126.93404688154216,2026-05-20 20:11:48,306,82,19
156,분유포트 이사 정리합니다,봉천동에서 거래 가능한 분유포트입니다. 상태 좋고 빠른 거래 원합니다.,유아용품,85000,봉천동,37.483666602628205,126.93972582499246,2026-05-22 03:15:48,485,26,21
157,침낭 필요하신 분 가져가세요,낙성대동 인근에서 거래 원합니다. 침낭 필요하신 분 연락 주세요.,스포츠/레저,268000,낙성대동,37.47447471674454,126.95607918882526,2026-05-19 13:25:48,257,59,7
158,에어프라이어 거의 새상품입니다,에어프라이어 상태 양호합니다. 상도동 근처에서 시간 맞춰 거래 가능합니다.,생활가전,224000,상도동,37.49772714920862,126.93363121375138,2026-05-29 10:53:48,345,73,46
159,반려동물 방석 이사 정리합니다,흑석동 인근에서 거래 원합니다. 반려동물 방석 필요하신 분 연락 주세요.,반려동물용품,257000,흑석동,37.50595144422526,126.96212895088857,2026-06-05 14:20:48,527,58,15
160,갤럭시워치 이사 정리합니다,흑석동 인근에서 거래 원합니다. 갤럭시워치 필요하신 분 연락 주세요.,디지털기기,569000,흑석동,37.50745777639776,126.96263254072115,2026-06-05 13:18:48,147,33,46
161,무선 키보드 판매합니다,청룡동 인근에서 거래 원합니다. 무선 키보드 필요하신 분 연락 주세요.,디지털기기,586000,청룡동,37.481698570895176,126.95595311317958,2026-05-27 14:21:48,526,57,48
162,Xbox 컨트롤러 상태 좋아요,집 정리하면서 Xbox 컨트롤러 내놓습니다. 봉천동에서 직거래 가능합니다.,게임/취미,387000,봉천동,37.47904267359369,126.94262462951161,2026-05-11 06:10:48,971,46,48
163,아기 옷 세트 판매합니다,신림동에서 거래 가능한 아기 옷 세트입니다. 상태 좋고 빠른 거래 원합니다.,유아용품,75000,신림동,37.480689406645766,126.93293131692079,2026-05-14 05:54:48,495,66,29
164,스탠드 조명 사용감 적어요,집 정리하면서 스탠드 조명 내놓습니다. 낙성대동에서 직거래 가능합니다.,가구/인테리어,325000,낙성대동,37.47712339829876,126.96068739806437,2026-05-13 07:08:48,354,64,32
165,자기계발서 판매합니다,사당동 인근에서 거래 원합니다. 자기계발서 필요하신 분 연락 주세요.,도서,17000,사당동,37.47789260480602,126.98256909615954,2026-05-22 22:26:48,825,92,44
166,전공서적 급처합니다,전공서적 상태 양호합니다. 신림동 근처에서 시간 맞춰 거래 가능합니다.,도서,64000,신림동,37.48761167124958,126.925477757083,2026-05-31 00:05:48,748,79,49
167,울 코트 저렴하게 내놓습니다,청룡동에서 거래 가능한 울 코트입니다. 상태 좋고 빠른 거래 원합니다.,의류,117000,청룡동,37.48030377409323,126.95544972301806,2026-05-26 03:36:48,432,88,13
168,배변패드 판매합니다,배변패드 상태 양호합니다. 낙성대동 근처에서 시간 맞춰 거래 가능합니다.,반려동물용품,109000,낙성대동,37.47493752598738,126.95533182423858,2026-05-19 06:03:48,499,67,24
169,장우산 사용감 적어요,장우산 상태 양호합니다. 대학동 근처에서 시간 맞춰 거래 가능합니다.,생활용품,126000,대학동,37.47501485546327,126.94162260296477,2026-05-30 09:28:48,581,38,14
170,영어 회화책 급처합니다,흑석동 인근에서 거래 원합니다. 영어 회화책 필요하신 분 연락 주세요.,도서,64000,흑석동,37.50667789375498,126.96433476803874,2026-05-24 22:46:48,966,92,17
171,멀티탭 필요하신 분 가져가세요,멀티탭 판매합니다. 사당동 근처 직거래 가능하고 사용감은 적은 편입니다.,생활용품,77000,사당동,37.47815972050551,126.98407338499717,2026-06-04 07:00:48,90,44,28
172,체크 셔츠 거의 새상품입니다,체크 셔츠 판매합니다. 대학동 근처 직거래 가능하고 사용감은 적은 편입니다.,의류,32000,대학동,37.47229833964893,126.93711041489733,2026-05-16 17:08:48,255,31,3
173,울 코트 저렴하게 내놓습니다,상도동 인근에서 거래 원합니다. 울 코트 필요하신 분 연락 주세요.,의류,188000,상도동,37.504245187672254,126.93577910711832,2026-05-21 13:02:48,799,17,0
174,행거 이사 정리합니다,행거 판매합니다. 흑석동 근처 직거래 가능하고 사용감은 적은 편입니다.,가구/인테리어,397000,흑석동,37.51287936958736,126.95949460720512,2026-05-06 07:25:48,302,82,3
175,피규어 판매합니다,집 정리하면서 피규어 내놓습니다. 낙성대동에서 직거래 가능합니다.,게임/취미,185000,낙성대동,37.47366311631922,126.96109003201441,2026-05-07 14:52:48,416,100,31
176,머신러닝 입문서 판매합니다,신림동 인근에서 거래 원합니다. 머신러닝 입문서 필요하신 분 연락 주세요.,도서,75000,신림동,37.48909099470089,126.92943300483557,2026-05-17 12:46:48,353,36,29
177,스크래쳐 상태 좋아요,흑석동 인근에서 거래 원합니다. 스크래쳐 필요하신 분 연락 주세요.,반려동물용품,101000,흑석동,37.510282853387096,126.96578598173456,2026-05-11 13:24:48,176,93,29
178,보조배터리 사용감 적어요,보조배터리 상태 양호합니다. 대학동 근처에서 시간 맞춰 거래 가능합니다.,디지털기기,710000,대학동,37.47386989825276,126.9369528065896,2026-05-12 10:34:48,635,81,25
179,헤어드라이기 저렴하게 내놓습니다,헤어드라이기 판매합니다. 낙성대동 근처 직거래 가능하고 사용감은 적은 편입니다.,생활가전,254000,낙성대동,37.47626735521806,126.95626994326965,2026-05-26 09:45:48,277,49,15
180,캠핑 테이블 판매합니다,대학동 인근에서 거래 원합니다. 캠핑 테이블 필요하신 분 연락 주세요.,스포츠/레저,359000,대학동,37.46719716825228,126.93866073619891,2026-05-29 15:03:48,131,59,19
181,영어 회화책 저렴하게 내놓습니다,대학동 인근에서 거래 원합니다. 영어 회화책 필요하신 분 연락 주세요.,도서,31000,대학동,37.47548837961895,126.93553624841988,2026-05-29 12:15:48,166,58,47
182,담요 급처합니다,담요 상태 양호합니다. 청룡동 근처에서 시간 맞춰 거래 가능합니다.,생활용품,23000,청룡동,37.48537244706781,126.94882208791536,2026-05-20 02:12:48,730,46,4
183,쿠션 급처합니다,쿠션 판매합니다. 낙성대동 근처 직거래 가능하고 사용감은 적은 편입니다.,생활용품,86000,낙성대동,37.4789691796618,126.95848827966832,2026-05-09 00:17:48,129,87,13
184,방향제 판매합니다,방향제 판매합니다. 흑석동 근처 직거래 가능하고 사용감은 적은 편입니다.,생활용품,134000,흑석동,37.510527677122276,126.96168169564034,2026-05-23 02:09:48,69,71,29
185,무선 키보드 거의 새상품입니다,무선 키보드 판매합니다. 신림동 근처 직거래 가능하고 사용감은 적은 편입니다.,디지털기기,612000,신림동,37.4846116350408,126.92460255631318,2026-06-03 15:18:48,362,89,4
186,전기장판 판매합니다,집 정리하면서 전기장판 내놓습니다. 대학동에서 직거래 가능합니다.,생활가전,102000,대학동,37.475237825669375,126.93554460920639,2026-05-12 11:56:48,666,93,41
187,블록 장난감 필요하신 분 가져가세요,상도동에서 거래 가능한 블록 장난감입니다. 상태 좋고 빠른 거래 원합니다.,유아용품,354000,상도동,37.503202865811275,126.92718633167286,2026-05-05 18:50:48,562,17,41
188,멀티탭 상태 좋아요,청룡동에서 거래 가능한 멀티탭입니다. 상태 좋고 빠른 거래 원합니다.,생활용품,8000,청룡동,37.48151933608497,126.95593360437375,2026-05-27 02:02:48,746,69,27
189,트레이닝 팬츠 사용감 적어요,낙성대동 인근에서 거래 원합니다. 트레이닝 팬츠 필요하신 분 연락 주세요.,의류,53000,낙성대동,37.47599240598491,126.96126053467515,2026-05-06 16:57:48,125,4,42
190,갤럭시탭 급처합니다,봉천동에서 거래 가능한 갤럭시탭입니다. 상태 좋고 빠른 거래 원합니다.,디지털기기,628000,봉천동,37.48004734151218,126.93704236730055,2026-06-04 02:07:48,698,90,3
191,자동 급식기 급처합니다,자동 급식기 판매합니다. 신림동 근처 직거래 가능하고 사용감은 적은 편입니다.,반려동물용품,260000,신림동,37.482389036963696,126.92997917674278,2026-05-27 08:53:48,948,93,36
192,등산화 거의 새상품입니다,등산화 상태 양호합니다. 낙성대동 근처에서 시간 맞춰 거래 가능합니다.,스포츠/레저,118000,낙성대동,37.48059713890964,126.96271577665621,2026-05-23 07:28:48,72,71,37
193,아기 옷 세트 이사 정리합니다,신림동 인근에서 거래 원합니다. 아기 옷 세트 필요하신 분 연락 주세요.,유아용품,334000,신림동,37.483363246334214,126.92549217607825,2026-05-15 03:55:48,547,40,44
194,아기 침대 이사 정리합니다,아기 침대 판매합니다. 청룡동 근처 직거래 가능하고 사용감은 적은 편입니다.,유아용품,158000,청룡동,37.48182385949587,126.95737786188546,2026-05-08 18:36:48,835,59,3
195,쿠션 상태 좋아요,쿠션 판매합니다. 상도동 근처 직거래 가능하고 사용감은 적은 편입니다.,생활용품,68000,상도동,37.49552463996527,126.93324584712308,2026-05-30 06:04:48,90,57,23
196,울 코트 거의 새상품입니다,울 코트 상태 양호합니다. 상도동 근처에서 시간 맞춰 거래 가능합니다.,의류,159000,상도동,37.50184305239852,126.93158850476273,2026-06-04 14:33:48,833,97,37
197,자동 급식기 사용감 적어요,대학동에서 거래 가능한 자동 급식기입니다. 상태 좋고 빠른 거래 원합니다.,반려동물용품,111000,대학동,37.47038920876342,126.93422593181846,2026-05-07 09:58:48,130,95,48
198,레고 세트 필요하신 분 가져가세요,레고 세트 상태 양호합니다. 청룡동 근처에서 시간 맞춰 거래 가능합니다.,게임/취미,334000,청룡동,37.479792595555516,126.95031561627384,2026-05-12 07:21:48,487,68,41
199,담요 이사 정리합니다,집 정리하면서 담요 내놓습니다. 봉천동에서 직거래 가능합니다.,생활용품,84000,봉천동,37.48322524727464,126.93881274098315,2026-05-07 10:22:48,330,52,2
200,컴퓨터 책상 거의 새상품입니다,상도동 인근에서 거래 원합니다. 컴퓨터 책상 필요하신 분 연락 주세요.,가구/인테리어,88000,상도동,37.499593014823695,126.93254607966121,2026-05-30 06:31:48,398,72,15
201,캠핑 의자 이사 정리합니다,집 정리하면서 캠핑 의자 내놓습니다. 흑석동에서 직거래 가능합니다.,스포츠/레저,91000,흑석동,37.508683163212545,126.96776899389694,2026-05-13 05:35:48,153,92,34
202,냄비 세트 판매합니다,봉천동에서 거래 가능한 냄비 세트입니다. 상태 좋고 빠른 거래 원합니다.,생활용품,4000,봉천동,37.48467169563703,126.9366914146169,2026-05-23 11:52:48,655,29,4
203,방향제 사용감 적어요,방향제 상태 양호합니다. 신림동 근처에서 시간 맞춰 거래 가능합니다.,생활용품,126000,신림동,37.48331338508218,126.92416726147603,2026-05-15 01:44:48,16,68,35
204,소설책 세트 거의 새상품입니다,소설책 세트 상태 양호합니다. 신림동 근처에서 시간 맞춰 거래 가능합니다.,도서,58000,신림동,37.4806889748574,126.92591932056992,2026-05-11 11:39:48,950,12,33
205,텀블러 사용감 적어요,집 정리하면서 텀블러 내놓습니다. 대학동에서 직거래 가능합니다.,생활용품,23000,대학동,37.467858572526275,126.93864041625471,2026-05-25 04:16:48,588,31,44
206,에어프라이어 저렴하게 내놓습니다,집 정리하면서 에어프라이어 내놓습니다. 상도동에서 직거래 가능합니다.,생활가전,203000,상도동,37.49631383575221,126.93099858393113,2026-05-19 01:42:48,662,1,44
207,기저귀 정리함 사용감 적어요,기저귀 정리함 상태 양호합니다. 봉천동 근처에서 시간 맞춰 거래 가능합니다.,유아용품,26000,봉천동,37.48235500287645,126.93706561970741,2026-05-29 09:48:48,898,88,36
208,제습기 판매합니다,낙성대동 인근에서 거래 원합니다. 제습기 필요하신 분 연락 주세요.,생활가전,18000,낙성대동,37.48000902387785,126.96288874940254,2026-05-06 10:08:48,157,96,45
209,알고리즘 문제집 급처합니다,알고리즘 문제집 상태 양호합니다. 상도동 근처에서 시간 맞춰 거래 가능합니다.,도서,45000,상도동,37.49538427691019,126.93345456561255,2026-05-23 17:37:48,819,88,46
210,덤벨 세트 저렴하게 내놓습니다,덤벨 세트 판매합니다. 상도동 근처 직거래 가능하고 사용감은 적은 편입니다.,스포츠/레저,434000,상도동,37.49856703049309,126.93373554916131,2026-06-03 06:07:48,797,78,38
211,외장하드 거의 새상품입니다,집 정리하면서 외장하드 내놓습니다. 흑석동에서 직거래 가능합니다.,디지털기기,253000,흑석동,37.509658751212115,126.96240072713536,2026-05-24 23:21:48,452,23,43
212,입문용 드론 급처합니다,봉천동에서 거래 가능한 입문용 드론입니다. 상태 좋고 빠른 거래 원합니다.,게임/취미,279000,봉천동,37.48499655288976,126.93976678228681,2026-06-01 04:00:48,812,81,9
213,전기포트 판매합니다,집 정리하면서 전기포트 내놓습니다. 대학동에서 직거래 가능합니다.,생활가전,194000,대학동,37.46990979515976,126.93736985032221,2026-05-12 08:39:48,145,11,11
214,디퓨저 저렴하게 내놓습니다,신림동에서 거래 가능한 디퓨저입니다. 상태 좋고 빠른 거래 원합니다.,생활용품,93000,신림동,37.48783718177268,126.92412340614884,2026-05-19 14:07:48,622,100,20
215,아기 장난감 저렴하게 내놓습니다,아기 장난감 상태 양호합니다. 청룡동 근처에서 시간 맞춰 거래 가능합니다.,유아용품,271000,청룡동,37.47921131265375,126.9526312394221,2026-05-30 19:21:48,183,17,17
216,토스터기 필요하신 분 가져가세요,집 정리하면서 토스터기 내놓습니다. 대학동에서 직거래 가능합니다.,생활가전,163000,대학동,37.47185033687769,126.93773806398039,2026-05-21 14:22:48,267,31,46
217,트레이닝 팬츠 저렴하게 내놓습니다,낙성대동 인근에서 거래 원합니다. 트레이닝 팬츠 필요하신 분 연락 주세요.,의류,6000,낙성대동,37.479840764619574,126.9568954171628,2026-05-06 04:24:48,871,79,24
218,자전거 헬멧 상태 좋아요,대학동 인근에서 거래 원합니다. 자전거 헬멧 필요하신 분 연락 주세요.,스포츠/레저,313000,대학동,37.47524574623095,126.94148725221747,2026-05-05 18:33:48,500,40,11
219,영어 회화책 이사 정리합니다,청룡동 인근에서 거래 원합니다. 영어 회화책 필요하신 분 연락 주세요.,도서,51000,청룡동,37.48212227034251,126.9531562908545,2026-05-28 04:22:48,126,72,12
220,식기 세트 이사 정리합니다,집 정리하면서 식기 세트 내놓습니다. 청룡동에서 직거래 가능합니다.,생활용품,77000,청룡동,37.48119303215289,126.95403336039654,2026-05-09 18:41:48,848,52,43
221,슬랙스 상태 좋아요,집 정리하면서 슬랙스 내놓습니다. 상도동에서 직거래 가능합니다.,의류,23000,상도동,37.4996661264303,126.93520392184477,2026-05-21 21:15:48,606,51,34
222,아기 옷 세트 판매합니다,아기 옷 세트 상태 양호합니다. 사당동 근처에서 시간 맞춰 거래 가능합니다.,유아용품,309000,사당동,37.47824693887196,126.9782633849328,2026-05-16 14:39:48,797,31,42
223,플스5 게임 타이틀 필요하신 분 가져가세요,집 정리하면서 플스5 게임 타이틀 내놓습니다. 사당동에서 직거래 가능합니다.,게임/취미,113000,사당동,37.476787977668494,126.98240518295525,2026-06-05 13:29:48,237,65,47
224,피규어 이사 정리합니다,집 정리하면서 피규어 내놓습니다. 사당동에서 직거래 가능합니다.,게임/취미,479000,사당동,37.47504967387599,126.97684562653026,2026-05-11 19:08:48,717,64,9
225,선풍기 필요하신 분 가져가세요,봉천동에서 거래 가능한 선풍기입니다. 상태 좋고 빠른 거래 원합니다.,생활가전,383000,봉천동,37.47966867326208,126.94142925998779,2026-06-01 05:26:48,361,58,50
226,고양이 캣타워 이사 정리합니다,흑석동 인근에서 거래 원합니다. 고양이 캣타워 필요하신 분 연락 주세요.,반려동물용품,37000,흑석동,37.51229180008047,126.96507969917278,2026-05-27 14:54:48,737,14,1
227,3인용 소파 상태 좋아요,낙성대동 인근에서 거래 원합니다. 3인용 소파 필요하신 분 연락 주세요.,가구/인테리어,296000,낙성대동,37.47364451775151,126.96000478876661,2026-05-23 02:31:48,826,51,40
228,아기 장난감 판매합니다,집 정리하면서 아기 장난감 내놓습니다. 청룡동에서 직거래 가능합니다.,유아용품,308000,청룡동,37.47898344830516,126.95473759743338,2026-05-23 04:45:48,731,27,13
229,인덕션 저렴하게 내놓습니다,낙성대동 인근에서 거래 원합니다. 인덕션 필요하신 분 연락 주세요.,생활가전,176000,낙성대동,37.47707715019627,126.95999108585667,2026-05-30 02:38:48,278,85,31
230,통기타 필요하신 분 가져가세요,봉천동 인근에서 거래 원합니다. 통기타 필요하신 분 연락 주세요.,게임/취미,365000,봉천동,37.485606133831844,126.94578682579804,2026-05-09 02:06:48,186,86,45
231,플스4 게임 타이틀 상태 좋아요,사당동에서 거래 가능한 플스4 게임 타이틀입니다. 상태 좋고 빠른 거래 원합니다.,게임/취미,249000,사당동,37.47670824869487,126.9807823910621,2026-05-27 13:34:48,392,88,9
232,수납장 필요하신 분 가져가세요,수납장 판매합니다. 상도동 근처 직거래 가능하고 사용감은 적은 편입니다.,가구/인테리어,259000,상도동,37.50014912575833,126.93089642026192,2026-05-15 23:01:48,951,82,11
233,침대 프레임 사용감 적어요,침대 프레임 상태 양호합니다. 흑석동 근처에서 시간 맞춰 거래 가능합니다.,가구/인테리어,37000,흑석동,37.51195215940654,126.96823829089415,2026-05-09 05:45:48,506,17,12
234,담요 필요하신 분 가져가세요,집 정리하면서 담요 내놓습니다. 흑석동에서 직거래 가능합니다.,생활용품,116000,흑석동,37.511410566185454,126.96152089909559,2026-05-21 11:40:48,588,3,50
235,정보처리기사 교재 거의 새상품입니다,집 정리하면서 정보처리기사 교재 내놓습니다. 낙성대동에서 직거래 가능합니다.,도서,75000,낙성대동,37.47294206651359,126.96135113027864,2026-05-13 01:10:48,533,14,36
236,농구공 판매합니다,농구공 상태 양호합니다. 흑석동 근처에서 시간 맞춰 거래 가능합니다.,스포츠/레저,116000,흑석동,37.50627531624866,126.96734809846276,2026-05-23 12:58:48,859,83,48
237,게이밍 마우스 거의 새상품입니다,사당동에서 거래 가능한 게이밍 마우스입니다. 상태 좋고 빠른 거래 원합니다.,디지털기기,469000,사당동,37.479707027168395,126.98247923896977,2026-05-09 12:56:48,841,30,13
238,헬스 장갑 필요하신 분 가져가세요,헬스 장갑 상태 양호합니다. 낙성대동 근처에서 시간 맞춰 거래 가능합니다.,스포츠/레저,76000,낙성대동,37.47530815478952,126.95641085018791,2026-05-11 09:53:48,221,7,36
239,청소도구 세트 사용감 적어요,대학동 인근에서 거래 원합니다. 청소도구 세트 필요하신 분 연락 주세요.,생활용품,149000,대학동,37.475227719949935,126.93965691048292,2026-05-27 23:48:48,705,12,8
240,애플워치 상태 좋아요,애플워치 판매합니다. 낙성대동 근처 직거래 가능하고 사용감은 적은 편입니다.,디지털기기,169000,낙성대동,37.47572700750302,126.95502171633076,2026-05-14 05:52:48,263,97,43
241,전공서적 필요하신 분 가져가세요,집 정리하면서 전공서적 내놓습니다. 상도동에서 직거래 가능합니다.,도서,12000,상도동,37.50154703615728,126.93477317356833,2026-05-16 14:20:48,537,95,17
242,강아지 장난감 사용감 적어요,신림동에서 거래 가능한 강아지 장난감입니다. 상태 좋고 빠른 거래 원합니다.,반려동물용품,237000,신림동,37.48454424464388,126.92617829935016,2026-05-15 19:01:48,376,8,50
243,아기 그림책 급처합니다,흑석동 인근에서 거래 원합니다. 아기 그림책 필요하신 분 연락 주세요.,유아용품,170000,흑석동,37.50946142110917,126.96345337904009,2026-05-10 07:24:48,570,73,8
244,덤벨 세트 판매합니다,집 정리하면서 덤벨 세트 내놓습니다. 봉천동에서 직거래 가능합니다.,스포츠/레저,13000,봉천동,37.479623182063975,126.9434859188191,2026-06-02 11:17:48,477,0,27
245,원목 식탁 상태 좋아요,대학동에서 거래 가능한 원목 식탁입니다. 상태 좋고 빠른 거래 원합니다.,가구/인테리어,345000,대학동,37.46725525079159,126.93576341566933,2026-05-25 08:40:48,390,85,41
246,영어 회화책 급처합니다,상도동에서 거래 가능한 영어 회화책입니다. 상태 좋고 빠른 거래 원합니다.,도서,15000,상도동,37.4968619086146,126.93279982725122,2026-06-05 10:15:48,89,16,37
247,아이폰 13 사용감 적어요,집 정리하면서 아이폰 13 내놓습니다. 봉천동에서 직거래 가능합니다.,디지털기기,730000,봉천동,37.484907633817635,126.9376242717045,2026-06-01 01:41:48,244,49,5
248,침낭 거의 새상품입니다,집 정리하면서 침낭 내놓습니다. 낙성대동에서 직거래 가능합니다.,스포츠/레저,401000,낙성대동,37.47710508276546,126.95368474741953,2026-05-10 12:04:48,703,18,4
249,옷장 사용감 적어요,옷장 판매합니다. 청룡동 근처 직거래 가능하고 사용감은 적은 편입니다.,가구/인테리어,480000,청룡동,37.48516592945609,126.94910013141575,2026-05-22 21:02:48,463,27,5
250,인덕션 필요하신 분 가져가세요,집 정리하면서 인덕션 내놓습니다. 사당동에서 직거래 가능합니다.,생활가전,171000,사당동,37.47408167027186,126.98260999061763,2026-05-11 12:30:48,293,82,5
251,입문용 드론 판매합니다,입문용 드론 판매합니다. 대학동 근처 직거래 가능하고 사용감은 적은 편입니다.,게임/취미,535000,대학동,37.472061697746405,126.93963801599577,2026-05-17 00:33:48,775,50,18
252,운동화 필요하신 분 가져가세요,운동화 판매합니다. 봉천동 근처 직거래 가능하고 사용감은 적은 편입니다.,의류,132000,봉천동,37.48693924401674,126.93791982880732,2026-05-15 21:41:48,550,1,23
253,우쿨렐레 사용감 적어요,집 정리하면서 우쿨렐레 내놓습니다. 낙성대동에서 직거래 가능합니다.,게임/취미,79000,낙성대동,37.47219826861937,126.95420468859588,2026-06-04 22:41:48,24,33,13
254,아기 옷 세트 거의 새상품입니다,집 정리하면서 아기 옷 세트 내놓습니다. 상도동에서 직거래 가능합니다.,유아용품,364000,상도동,37.49612680443805,126.92683597073777,2026-05-24 14:05:48,559,68,39
255,미니 냉장고 급처합니다,미니 냉장고 상태 양호합니다. 낙성대동 근처에서 시간 맞춰 거래 가능합니다.,생활가전,177000,낙성대동,37.47823154569463,126.95670169493397,2026-05-23 22:05:48,791,83,43
256,아기 욕조 급처합니다,아기 욕조 판매합니다. 신림동 근처 직거래 가능하고 사용감은 적은 편입니다.,유아용품,49000,신림동,37.47975028619687,126.9306607957886,2026-05-07 03:38:48,474,78,38
257,책장 판매합니다,낙성대동에서 거래 가능한 책장입니다. 상태 좋고 빠른 거래 원합니다.,가구/인테리어,93000,낙성대동,37.47439246961526,126.95731869430892,2026-05-21 05:12:48,539,100,46
258,영어 회화책 저렴하게 내놓습니다,신림동 인근에서 거래 원합니다. 영어 회화책 필요하신 분 연락 주세요.,도서,57000,신림동,37.48547532832899,126.92896147568935,2026-05-28 00:41:48,279,91,36
259,공구 세트 판매합니다,공구 세트 상태 양호합니다. 흑석동 근처에서 시간 맞춰 거래 가능합니다.,생활용품,45000,흑석동,37.51054120431563,126.95975333603533,2026-05-25 11:29:48,801,13,36
260,식기 세트 판매합니다,식기 세트 판매합니다. 신림동 근처 직거래 가능하고 사용감은 적은 편입니다.,생활용품,14000,신림동,37.488511600771574,126.93257485197748,2026-05-21 05:21:48,952,19,11
261,디퓨저 급처합니다,디퓨저 판매합니다. 사당동 근처 직거래 가능하고 사용감은 적은 편입니다.,생활용품,109000,사당동,37.47532808166738,126.9816204094256,2026-05-06 17:25:48,287,9,36
262,아이패드 미니 급처합니다,집 정리하면서 아이패드 미니 내놓습니다. 신림동에서 직거래 가능합니다.,디지털기기,90000,신림동,37.482473009217266,126.92953091395324,2026-05-08 01:50:48,299,99,19
263,갤럭시 버즈 급처합니다,갤럭시 버즈 상태 양호합니다. 대학동 근처에서 시간 맞춰 거래 가능합니다.,디지털기기,823000,대학동,37.471516909349845,126.93673360675855,2026-05-26 17:06:48,258,59,23
264,토트백 급처합니다,낙성대동에서 거래 가능한 토트백입니다. 상태 좋고 빠른 거래 원합니다.,의류,243000,낙성대동,37.48019574006896,126.96237198614251,2026-05-23 16:31:48,564,44,40
265,요가매트 필요하신 분 가져가세요,대학동에서 거래 가능한 요가매트입니다. 상태 좋고 빠른 거래 원합니다.,스포츠/레저,110000,대학동,37.472716524747,126.93273026638359,2026-05-20 09:19:48,513,7,9
266,로퍼 필요하신 분 가져가세요,집 정리하면서 로퍼 내놓습니다. 사당동에서 직거래 가능합니다.,의류,196000,사당동,37.47979962891894,126.9773483048433,2026-06-02 22:39:48,527,17,40
267,플스5 게임 타이틀 필요하신 분 가져가세요,플스5 게임 타이틀 판매합니다. 낙성대동 근처 직거래 가능하고 사용감은 적은 편입니다.,게임/취미,303000,낙성대동,37.480118998346875,126.9568625156878,2026-05-28 05:46:48,830,50,44
268,반려동물 이동장 급처합니다,반려동물 이동장 판매합니다. 봉천동 근처 직거래 가능하고 사용감은 적은 편입니다.,반려동물용품,72000,봉천동,37.4820956674774,126.93974033287812,2026-05-11 22:39:48,169,13,10
269,전기밥솥 사용감 적어요,집 정리하면서 전기밥솥 내놓습니다. 청룡동에서 직거래 가능합니다.,생활가전,167000,청룡동,37.484275969046806,126.95074214982884,2026-05-22 07:51:48,132,11,10
270,플스5 게임 타이틀 급처합니다,플스5 게임 타이틀 판매합니다. 사당동 근처 직거래 가능하고 사용감은 적은 편입니다.,게임/취미,98000,사당동,37.47837183376989,126.97920166792721,2026-05-14 09:23:48,415,65,3
271,컴퓨터 책상 필요하신 분 가져가세요,컴퓨터 책상 상태 양호합니다. 흑석동 근처에서 시간 맞춰 거래 가능합니다.,가구/인테리어,393000,흑석동,37.50519793039273,126.95871956923169,2026-05-19 09:39:48,483,13,50
272,맨투맨 급처합니다,상도동 인근에서 거래 원합니다. 맨투맨 필요하신 분 연락 주세요.,의류,180000,상도동,37.50377428581512,126.92674987180693,2026-05-15 20:40:48,606,75,16
273,공기청정기 이사 정리합니다,낙성대동에서 거래 가능한 공기청정기입니다. 상태 좋고 빠른 거래 원합니다.,생활가전,179000,낙성대동,37.476131563772384,126.96084430847131,2026-06-02 15:16:48,61,21,36
274,강아지 하우스 필요하신 분 가져가세요,강아지 하우스 판매합니다. 상도동 근처 직거래 가능하고 사용감은 적은 편입니다.,반려동물용품,184000,상도동,37.494946494437315,126.93219176548845,2026-05-30 11:28:48,296,57,9
275,운동복 세트 이사 정리합니다,운동복 세트 상태 양호합니다. 상도동 근처에서 시간 맞춰 거래 가능합니다.,의류,127000,상도동,37.49659457806667,126.93484652516224,2026-06-04 14:28:48,402,17,26
276,화장품 정리함 판매합니다,상도동 인근에서 거래 원합니다. 화장품 정리함 필요하신 분 연락 주세요.,생활용품,125000,상도동,37.49781604418668,126.92870435684769,2026-05-19 01:23:48,944,72,32
277,에어팟 프로 급처합니다,신림동 인근에서 거래 원합니다. 에어팟 프로 필요하신 분 연락 주세요.,디지털기기,79000,신림동,37.489196057468114,126.93373979861734,2026-05-11 01:12:48,376,98,37
278,가습기 급처합니다,가습기 상태 양호합니다. 대학동 근처에서 시간 맞춰 거래 가능합니다.,생활가전,387000,대학동,37.474952060320916,126.9417154192094,2026-06-04 09:09:48,876,49,22
279,침대 프레임 급처합니다,사당동 인근에서 거래 원합니다. 침대 프레임 필요하신 분 연락 주세요.,가구/인테리어,477000,사당동,37.47723606486783,126.98223108890863,2026-05-18 16:00:48,727,45,36
280,운동화 거의 새상품입니다,집 정리하면서 운동화 내놓습니다. 낙성대동에서 직거래 가능합니다.,의류,14000,낙성대동,37.47706448514148,126.95360683496384,2026-06-03 15:31:48,626,28,1
281,레고 세트 상태 좋아요,레고 세트 판매합니다. 사당동 근처 직거래 가능하고 사용감은 적은 편입니다.,게임/취미,336000,사당동,37.4793436649882,126.98506480887579,2026-06-04 16:36:48,610,90,9
282,아령 사용감 적어요,아령 상태 양호합니다. 상도동 근처에서 시간 맞춰 거래 가능합니다.,스포츠/레저,56000,상도동,37.50408693532027,126.93391842525,2026-05-26 07:25:48,149,20,46
283,하네스 사용감 적어요,하네스 상태 양호합니다. 낙성대동 근처에서 시간 맞춰 거래 가능합니다.,반려동물용품,185000,낙성대동,37.47486823229298,126.96048498439599,2026-05-28 19:08:48,844,22,24
284,침대 프레임 판매합니다,침대 프레임 상태 양호합니다. 상도동 근처에서 시간 맞춰 거래 가능합니다.,가구/인테리어,26000,상도동,37.50099646772784,126.92704110233014,2026-05-30 21:25:48,953,78,14
285,고양이 화장실 사용감 적어요,고양이 화장실 판매합니다. 봉천동 근처 직거래 가능하고 사용감은 적은 편입니다.,반려동물용품,180000,봉천동,37.48430024571114,126.94389285947133,2026-05-26 11:05:48,916,11,45
286,배드민턴 라켓 판매합니다,배드민턴 라켓 판매합니다. 대학동 근처 직거래 가능하고 사용감은 적은 편입니다.,스포츠/레저,132000,대학동,37.47280413587997,126.93228147457734,2026-05-14 14:23:48,272,100,6
287,사료 보관통 필요하신 분 가져가세요,집 정리하면서 사료 보관통 내놓습니다. 낙성대동에서 직거래 가능합니다.,반려동물용품,255000,낙성대동,37.48008806977566,126.96148729994476,2026-05-08 04:23:48,569,48,6
288,피규어 상태 좋아요,흑석동에서 거래 가능한 피규어입니다. 상태 좋고 빠른 거래 원합니다.,게임/취미,39000,흑석동,37.5072180820115,126.96747931267734,2026-05-27 16:25:48,277,13,4
289,게이밍 의자 저렴하게 내놓습니다,게이밍 의자 상태 양호합니다. 사당동 근처에서 시간 맞춰 거래 가능합니다.,가구/인테리어,324000,사당동,37.47324997194762,126.98549753270404,2026-05-08 01:00:48,41,55,41
290,사무용 의자 저렴하게 내놓습니다,사무용 의자 판매합니다. 사당동 근처 직거래 가능하고 사용감은 적은 편입니다.,가구/인테리어,107000,사당동,37.4742526476935,126.97941523073445,2026-05-22 18:10:48,749,93,34
291,나이키 후드티 판매합니다,나이키 후드티 상태 양호합니다. 상도동 근처에서 시간 맞춰 거래 가능합니다.,의류,145000,상도동,37.49887605957446,126.92894549448965,2026-05-10 01:36:48,65,46,0
292,그림 도구 급처합니다,봉천동에서 거래 가능한 그림 도구입니다. 상태 좋고 빠른 거래 원합니다.,게임/취미,216000,봉천동,37.48068353400117,126.94057467348507,2026-05-30 20:27:48,93,60,7
293,스크래쳐 거의 새상품입니다,스크래쳐 상태 양호합니다. 봉천동 근처에서 시간 맞춰 거래 가능합니다.,반려동물용품,201000,봉천동,37.482057752707945,126.93923295966682,2026-05-31 04:49:48,400,47,11
294,반려동물 이동장 급처합니다,반려동물 이동장 상태 양호합니다. 대학동 근처에서 시간 맞춰 거래 가능합니다.,반려동물용품,34000,대학동,37.469037913865456,126.93721449006007,2026-05-31 18:03:48,109,10,42
295,피규어 판매합니다,피규어 상태 양호합니다. 상도동 근처에서 시간 맞춰 거래 가능합니다.,게임/취미,433000,상도동,37.503416538694175,126.93076262281082,2026-05-05 23:02:48,897,60,36
296,헤어드라이기 판매합니다,낙성대동에서 거래 가능한 헤어드라이기입니다. 상태 좋고 빠른 거래 원합니다.,생활가전,397000,낙성대동,37.47222675900633,126.9543836852214,2026-05-22 11:35:48,226,24,8
297,아기 식탁의자 상태 좋아요,대학동 인근에서 거래 원합니다. 아기 식탁의자 필요하신 분 연락 주세요.,유아용품,377000,대학동,37.47112054191575,126.94036624180647,2026-05-07 14:40:48,407,71,25
298,방향제 판매합니다,상도동에서 거래 가능한 방향제입니다. 상태 좋고 빠른 거래 원합니다.,생활용품,109000,상도동,37.504248316647086,126.92700203997828,2026-06-01 12:09:48,612,74,48
299,인덕션 저렴하게 내놓습니다,인덕션 상태 양호합니다. 대학동 근처에서 시간 맞춰 거래 가능합니다.,생활가전,186000,대학동,37.471320232397986,126.93653046616,2026-05-08 03:29:48,402,83,31
300,좌식 테이블 필요하신 분 가져가세요,좌식 테이블 상태 양호합니다. 낙성대동 근처에서 시간 맞춰 거래 가능합니다.,가구/인테리어,321000,낙성대동,37.47870513754171,126.95409290975525,2026-05-14 18:20:48,49,50,21
301,스크래쳐 거의 새상품입니다,사당동에서 거래 가능한 스크래쳐입니다. 상태 좋고 빠른 거래 원합니다.,반려동물용품,175000,사당동,37.47844852027134,126.98632496642686,2026-05-10 07:26:48,297,62,44
302,맨투맨 거의 새상품입니다,흑석동 인근에서 거래 원합니다. 맨투맨 필요하신 분 연락 주세요.,의류,73000,흑석동,37.50821716598059,126.96773432805419,2026-05-13 03:07:48,671,11,12
303,아기 욕조 이사 정리합니다,사당동에서 거래 가능한 아기 욕조입니다. 상태 좋고 빠른 거래 원합니다.,유아용품,268000,사당동,37.47563385141012,126.98440516429628,2026-05-11 11:41:48,328,90,32
304,수건 세트 판매합니다,수건 세트 판매합니다. 낙성대동 근처 직거래 가능하고 사용감은 적은 편입니다.,생활용품,54000,낙성대동,37.48098031069341,126.96064633945221,2026-05-10 15:30:48,43,58,3
305,컴퓨터활용능력 교재 이사 정리합니다,상도동에서 거래 가능한 컴퓨터활용능력 교재입니다. 상태 좋고 빠른 거래 원합니다.,도서,6000,상도동,37.5042052037828,126.93074582289061,2026-05-29 05:14:48,618,57,11
306,공구 세트 사용감 적어요,낙성대동 인근에서 거래 원합니다. 공구 세트 필요하신 분 연락 주세요.,생활용품,26000,낙성대동,37.47959830135144,126.95574318587312,2026-05-27 16:21:48,60,20,36
307,청바지 급처합니다,집 정리하면서 청바지 내놓습니다. 대학동에서 직거래 가능합니다.,의류,136000,대학동,37.46733200656482,126.93980864808324,2026-06-04 19:45:48,495,16,41
308,슬랙스 거의 새상품입니다,집 정리하면서 슬랙스 내놓습니다. 대학동에서 직거래 가능합니다.,의류,234000,대학동,37.46862145091274,126.93700637898328,2026-05-24 05:16:48,268,27,29
309,통기타 저렴하게 내놓습니다,통기타 상태 양호합니다. 신림동 근처에서 시간 맞춰 거래 가능합니다.,게임/취미,388000,신림동,37.486044131358575,126.92881738418816,2026-05-18 20:07:48,633,36,19
310,캠핑 의자 사용감 적어요,대학동 인근에서 거래 원합니다. 캠핑 의자 필요하신 분 연락 주세요.,스포츠/레저,340000,대학동,37.47325474388303,126.94079687044746,2026-05-13 20:26:48,202,19,33
311,통기타 사용감 적어요,낙성대동에서 거래 가능한 통기타입니다. 상태 좋고 빠른 거래 원합니다.,게임/취미,514000,낙성대동,37.47916732095743,126.95943023702414,2026-05-27 07:47:48,438,51,24
312,레고 세트 사용감 적어요,레고 세트 상태 양호합니다. 청룡동 근처에서 시간 맞춰 거래 가능합니다.,게임/취미,492000,청룡동,37.48460638694596,126.95646494784341,2026-05-06 19:23:48,529,38,10
313,원목 식탁 저렴하게 내놓습니다,원목 식탁 판매합니다. 흑석동 근처 직거래 가능하고 사용감은 적은 편입니다.,가구/인테리어,389000,흑석동,37.51326923380194,126.96759591157851,2026-05-27 16:54:48,582,97,11
314,가습기 사용감 적어요,청룡동 인근에서 거래 원합니다. 가습기 필요하신 분 연락 주세요.,생활가전,225000,청룡동,37.48083760628188,126.9488778147124,2026-05-11 06:22:48,276,74,18
315,외장하드 저렴하게 내놓습니다,외장하드 판매합니다. 흑석동 근처 직거래 가능하고 사용감은 적은 편입니다.,디지털기기,532000,흑석동,37.504340619706426,126.96714239770404,2026-06-01 19:21:48,552,38,26
316,싱글 매트리스 사용감 적어요,싱글 매트리스 상태 양호합니다. 상도동 근처에서 시간 맞춰 거래 가능합니다.,가구/인테리어,467000,상도동,37.50238941177434,126.93087580845747,2026-05-07 02:36:48,333,91,11
317,스탠드 조명 판매합니다,집 정리하면서 스탠드 조명 내놓습니다. 신림동에서 직거래 가능합니다.,가구/인테리어,150000,신림동,37.487052109056975,126.93179752456308,2026-05-30 11:09:48,792,20,31
318,벽 선반 필요하신 분 가져가세요,집 정리하면서 벽 선반 내놓습니다. 상도동에서 직거래 가능합니다.,가구/인테리어,229000,상도동,37.49659414251228,126.92973101405427,2026-05-06 01:21:48,14,4,34
319,에어팟 프로 급처합니다,신림동에서 거래 가능한 에어팟 프로입니다. 상태 좋고 빠른 거래 원합니다.,디지털기기,661000,신림동,37.48048930800429,126.92783550476308,2026-05-13 09:31:48,720,44,19
320,입문용 드론 상태 좋아요,봉천동에서 거래 가능한 입문용 드론입니다. 상태 좋고 빠른 거래 원합니다.,게임/취미,310000,봉천동,37.48284117643668,126.94093665230035,2026-05-06 07:16:48,755,66,38
321,스탠드 조명 이사 정리합니다,스탠드 조명 판매합니다. 사당동 근처 직거래 가능하고 사용감은 적은 편입니다.,가구/인테리어,94000,사당동,37.48144879524493,126.97871190229164,2026-05-06 04:44:48,243,28,46
322,맥북 에어 상태 좋아요,봉천동 인근에서 거래 원합니다. 맥북 에어 필요하신 분 연락 주세요.,디지털기기,748000,봉천동,37.48531249663343,126.94283134777311,2026-05-16 15:21:48,907,81,16
323,플스5 게임 타이틀 저렴하게 내놓습니다,신림동에서 거래 가능한 플스5 게임 타이틀입니다. 상태 좋고 빠른 거래 원합니다.,게임/취미,123000,신림동,37.483943963383275,126.92553127098125,2026-05-23 02:21:48,136,70,16
324,갤럭시워치 필요하신 분 가져가세요,갤럭시워치 상태 양호합니다. 봉천동 근처에서 시간 맞춰 거래 가능합니다.,디지털기기,296000,봉천동,37.482715847864654,126.94277697955054,2026-05-16 21:01:48,150,53,6
325,자바 기본서 저렴하게 내놓습니다,자바 기본서 판매합니다. 흑석동 근처 직거래 가능하고 사용감은 적은 편입니다.,도서,80000,흑석동,37.51083436750246,126.96155351201,2026-05-30 07:52:48,545,25,22
326,LG 모니터 이사 정리합니다,집 정리하면서 LG 모니터 내놓습니다. 청룡동에서 직거래 가능합니다.,디지털기기,358000,청룡동,37.484552321652636,126.95439021930501,2026-05-29 16:45:48,697,11,7
327,게이밍 의자 저렴하게 내놓습니다,봉천동 인근에서 거래 원합니다. 게이밍 의자 필요하신 분 연락 주세요.,가구/인테리어,339000,봉천동,37.47859808915057,126.93834701808944,2026-05-29 02:27:48,280,59,3
328,갤럭시워치 사용감 적어요,집 정리하면서 갤럭시워치 내놓습니다. 사당동에서 직거래 가능합니다.,디지털기기,776000,사당동,37.480119987250745,126.9832335502749,2026-06-02 12:51:48,786,5,0
329,스탠드 조명 사용감 적어요,스탠드 조명 상태 양호합니다. 흑석동 근처에서 시간 맞춰 거래 가능합니다.,가구/인테리어,147000,흑석동,37.50493831999904,126.96260250225978,2026-05-07 17:40:48,391,43,11
330,반려동물 이동장 필요하신 분 가져가세요,집 정리하면서 반려동물 이동장 내놓습니다. 흑석동에서 직거래 가능합니다.,반려동물용품,88000,흑석동,37.504837131057386,126.96771226761273,2026-06-02 12:01:48,753,7,10
331,물그릇 이사 정리합니다,물그릇 상태 양호합니다. 낙성대동 근처에서 시간 맞춰 거래 가능합니다.,반려동물용품,197000,낙성대동,37.481534445802254,126.95490655329549,2026-05-12 05:06:48,39,87,46
332,고양이 캣타워 필요하신 분 가져가세요,흑석동에서 거래 가능한 고양이 캣타워입니다. 상태 좋고 빠른 거래 원합니다.,반려동물용품,35000,흑석동,37.509048179120384,126.96603623812322,2026-05-27 20:25:48,22,90,43
333,피규어 사용감 적어요,집 정리하면서 피규어 내놓습니다. 봉천동에서 직거래 가능합니다.,게임/취미,259000,봉천동,37.479086544522566,126.94486437820183,2026-05-21 05:03:48,702,82,24
334,플스5 게임 타이틀 판매합니다,플스5 게임 타이틀 상태 양호합니다. 낙성대동 근처에서 시간 맞춰 거래 가능합니다.,게임/취미,485000,낙성대동,37.47671647961144,126.95600891816697,2026-05-09 00:50:48,179,9,48
335,파이썬 입문서 급처합니다,집 정리하면서 파이썬 입문서 내놓습니다. 상도동에서 직거래 가능합니다.,도서,33000,상도동,37.495480198617024,126.93098456146173,2026-06-03 02:17:48,830,73,28
336,푸쉬업바 이사 정리합니다,신림동에서 거래 가능한 푸쉬업바입니다. 상태 좋고 빠른 거래 원합니다.,스포츠/레저,211000,신림동,37.48711783285172,126.9336317124828,2026-05-23 15:10:48,572,0,5
337,머신러닝 입문서 급처합니다,흑석동 인근에서 거래 원합니다. 머신러닝 입문서 필요하신 분 연락 주세요.,도서,49000,흑석동,37.50940150845106,126.96479757969676,2026-05-10 14:53:48,238,58,21
338,사료 보관통 사용감 적어요,흑석동에서 거래 가능한 사료 보관통입니다. 상태 좋고 빠른 거래 원합니다.,반려동물용품,52000,흑석동,37.512098838856346,126.96824433683454,2026-05-11 19:31:48,12,43,22
339,소설책 세트 사용감 적어요,봉천동에서 거래 가능한 소설책 세트입니다. 상태 좋고 빠른 거래 원합니다.,도서,24000,봉천동,37.48169210757218,126.9391428931125,2026-05-21 11:53:48,744,95,46
340,체크 셔츠 저렴하게 내놓습니다,체크 셔츠 판매합니다. 상도동 근처 직거래 가능하고 사용감은 적은 편입니다.,의류,122000,상도동,37.49874470345129,126.93526626530537,2026-05-10 10:00:48,356,13,48
341,Xbox 컨트롤러 이사 정리합니다,Xbox 컨트롤러 상태 양호합니다. 흑석동 근처에서 시간 맞춰 거래 가능합니다.,게임/취미,521000,흑석동,37.509332263289046,126.96292810379853,2026-06-01 01:45:48,553,94,3
342,그림 도구 상태 좋아요,그림 도구 판매합니다. 낙성대동 근처 직거래 가능하고 사용감은 적은 편입니다.,게임/취미,111000,낙성대동,37.48061390567009,126.95778664745833,2026-05-23 19:07:48,630,41,32
343,피규어 거의 새상품입니다,상도동 인근에서 거래 원합니다. 피규어 필요하신 분 연락 주세요.,게임/취미,306000,상도동,37.50346436855409,126.93112294622502,2026-05-22 12:37:48,432,77,44
344,장우산 급처합니다,장우산 판매합니다. 청룡동 근처 직거래 가능하고 사용감은 적은 편입니다.,생활용품,77000,청룡동,37.48270086387807,126.95728326452804,2026-05-15 04:47:48,698,16,45
345,베개 사용감 적어요,봉천동 인근에서 거래 원합니다. 베개 필요하신 분 연락 주세요.,생활용품,146000,봉천동,37.48177477933125,126.94407868723376,2026-05-20 22:09:48,975,85,45
346,도시락통 필요하신 분 가져가세요,도시락통 상태 양호합니다. 신림동 근처에서 시간 맞춰 거래 가능합니다.,생활용품,30000,신림동,37.481199024172646,126.9315018501867,2026-06-05 04:36:48,64,85,3
347,원목 식탁 거의 새상품입니다,낙성대동에서 거래 가능한 원목 식탁입니다. 상태 좋고 빠른 거래 원합니다.,가구/인테리어,363000,낙성대동,37.47538682437345,126.95812594504524,2026-05-11 07:32:48,781,69,2
348,퍼즐 급처합니다,퍼즐 판매합니다. 상도동 근처 직거래 가능하고 사용감은 적은 편입니다.,게임/취미,528000,상도동,37.50386484811169,126.92987554648641,2026-05-10 18:27:48,719,85,3
349,농구공 판매합니다,신림동 인근에서 거래 원합니다. 농구공 필요하신 분 연락 주세요.,스포츠/레저,108000,신림동,37.48629545453248,126.92767741121017,2026-05-17 01:52:48,240,81,45
350,퍼즐 급처합니다,청룡동 인근에서 거래 원합니다. 퍼즐 필요하신 분 연락 주세요.,게임/취미,464000,청룡동,37.481338468527746,126.95147198227052,2026-05-30 19:41:48,201,22,47
351,분유포트 거의 새상품입니다,분유포트 판매합니다. 낙성대동 근처 직거래 가능하고 사용감은 적은 편입니다.,유아용품,304000,낙성대동,37.48117494450471,126.95399940589321,2026-05-09 08:45:48,348,59,45
352,헬스 장갑 판매합니다,집 정리하면서 헬스 장갑 내놓습니다. 대학동에서 직거래 가능합니다.,스포츠/레저,409000,대학동,37.46877859005372,126.93399962015428,2026-05-17 23:23:48,84,100,45
353,화장대 저렴하게 내놓습니다,집 정리하면서 화장대 내놓습니다. 낙성대동에서 직거래 가능합니다.,가구/인테리어,288000,낙성대동,37.4784333447644,126.95691066536612,2026-05-19 04:40:48,367,28,13
354,정보처리기사 교재 이사 정리합니다,신림동에서 거래 가능한 정보처리기사 교재입니다. 상태 좋고 빠른 거래 원합니다.,도서,47000,신림동,37.48163827163867,126.92439877248425,2026-05-22 08:48:48,667,78,39
355,낚시대 저렴하게 내놓습니다,상도동 인근에서 거래 원합니다. 낚시대 필요하신 분 연락 주세요.,스포츠/레저,281000,상도동,37.49834958042162,126.93402816737508,2026-05-13 07:44:48,943,66,49
356,강아지 장난감 판매합니다,강아지 장난감 판매합니다. 대학동 근처 직거래 가능하고 사용감은 적은 편입니다.,반려동물용품,167000,대학동,37.47093205822164,126.93806933075976,2026-05-20 14:39:48,181,98,34
357,체크 셔츠 필요하신 분 가져가세요,체크 셔츠 판매합니다. 봉천동 근처 직거래 가능하고 사용감은 적은 편입니다.,의류,142000,봉천동,37.48406561159318,126.94599751111508,2026-05-09 17:49:48,769,99,27
358,컴퓨터 책상 이사 정리합니다,사당동에서 거래 가능한 컴퓨터 책상입니다. 상태 좋고 빠른 거래 원합니다.,가구/인테리어,54000,사당동,37.47230442092232,126.98481619318632,2026-06-03 15:34:48,823,32,35
359,경제 경영 도서 필요하신 분 가져가세요,집 정리하면서 경제 경영 도서 내놓습니다. 흑석동에서 직거래 가능합니다.,도서,58000,흑석동,37.50385898927461,126.96580285681027,2026-05-26 16:21:48,699,15,34
360,인덕션 판매합니다,봉천동 인근에서 거래 원합니다. 인덕션 필요하신 분 연락 주세요.,생활가전,267000,봉천동,37.478465052214375,126.9442527424102,2026-06-02 06:55:48,712,38,38
361,고양이 장난감 필요하신 분 가져가세요,집 정리하면서 고양이 장난감 내놓습니다. 신림동에서 직거래 가능합니다.,반려동물용품,83000,신림동,37.48717484612833,126.9294572446864,2026-05-19 09:37:48,774,50,50
362,원목 식탁 사용감 적어요,원목 식탁 상태 양호합니다. 신림동 근처에서 시간 맞춰 거래 가능합니다.,가구/인테리어,457000,신림동,37.48516654887453,126.92937152048555,2026-05-19 12:38:48,52,0,36
363,선풍기 급처합니다,선풍기 판매합니다. 사당동 근처 직거래 가능하고 사용감은 적은 편입니다.,생활가전,221000,사당동,37.47343992722785,126.9827688492324,2026-05-07 19:51:48,534,18,10
364,정보처리기사 교재 저렴하게 내놓습니다,정보처리기사 교재 상태 양호합니다. 낙성대동 근처에서 시간 맞춰 거래 가능합니다.,도서,9000,낙성대동,37.4747065266752,126.95427362757405,2026-05-08 23:16:48,670,70,4
365,공기청정기 이사 정리합니다,사당동 인근에서 거래 원합니다. 공기청정기 필요하신 분 연락 주세요.,생활가전,75000,사당동,37.472298088847104,126.97853498569114,2026-05-14 20:30:48,112,36,39
366,강아지 장난감 사용감 적어요,강아지 장난감 상태 양호합니다. 대학동 근처에서 시간 맞춰 거래 가능합니다.,반려동물용품,81000,대학동,37.467286395109056,126.93493214780734,2026-05-17 22:22:48,837,40,27
367,반팔 티셔츠 거의 새상품입니다,반팔 티셔츠 판매합니다. 사당동 근처 직거래 가능하고 사용감은 적은 편입니다.,의류,178000,사당동,37.475187416021136,126.97965471796445,2026-05-13 05:49:48,501,59,28
368,수납 박스 상태 좋아요,봉천동 인근에서 거래 원합니다. 수납 박스 필요하신 분 연락 주세요.,생활용품,38000,봉천동,37.47836462378557,126.93735399956793,2026-05-07 23:33:48,279,93,40
369,게이밍 모니터 판매합니다,게이밍 모니터 상태 양호합니다. 상도동 근처에서 시간 맞춰 거래 가능합니다.,디지털기기,237000,상도동,37.499321039507834,126.93375197238838,2026-05-07 15:10:48,276,69,34
370,낚시대 급처합니다,낚시대 판매합니다. 대학동 근처 직거래 가능하고 사용감은 적은 편입니다.,스포츠/레저,242000,대학동,37.46570591683258,126.93418880804539,2026-05-20 00:40:48,416,46,32
371,보드게임 상태 좋아요,보드게임 판매합니다. 흑석동 근처 직거래 가능하고 사용감은 적은 편입니다.,게임/취미,188000,흑석동,37.51112004474726,126.9679917525827,2026-05-17 22:03:48,903,18,47
372,갤럭시탭 이사 정리합니다,청룡동에서 거래 가능한 갤럭시탭입니다. 상태 좋고 빠른 거래 원합니다.,디지털기기,290000,청룡동,37.485277260925734,126.95131251364559,2026-05-25 09:43:48,694,26,33
373,스크래쳐 이사 정리합니다,신림동에서 거래 가능한 스크래쳐입니다. 상태 좋고 빠른 거래 원합니다.,반려동물용품,168000,신림동,37.481833160693846,126.92944350062089,2026-06-01 18:12:48,658,35,47
374,암막 커튼 필요하신 분 가져가세요,암막 커튼 상태 양호합니다. 사당동 근처에서 시간 맞춰 거래 가능합니다.,가구/인테리어,344000,사당동,37.476763717821676,126.9801289800776,2026-05-08 14:12:48,267,48,14
375,테니스 라켓 이사 정리합니다,테니스 라켓 상태 양호합니다. 신림동 근처에서 시간 맞춰 거래 가능합니다.,스포츠/레저,456000,신림동,37.485634770023886,126.92611517104136,2026-06-01 02:35:48,245,9,32
376,침대 프레임 사용감 적어요,침대 프레임 판매합니다. 봉천동 근처 직거래 가능하고 사용감은 적은 편입니다.,가구/인테리어,222000,봉천동,37.4823881464272,126.93870703951052,2026-05-11 05:59:48,126,61,43
377,행거 판매합니다,청룡동에서 거래 가능한 행거입니다. 상태 좋고 빠른 거래 원합니다.,가구/인테리어,75000,청룡동,37.476591908652395,126.95342269299229,2026-05-17 22:35:48,147,80,32
378,아이패드 미니 거의 새상품입니다,아이패드 미니 상태 양호합니다. 낙성대동 근처에서 시간 맞춰 거래 가능합니다.,디지털기기,435000,낙성대동,37.47841745062629,126.95643454626406,2026-05-16 22:05:48,29,92,46
379,공기청정기 이사 정리합니다,집 정리하면서 공기청정기 내놓습니다. 흑석동에서 직거래 가능합니다.,생활가전,97000,흑석동,37.505618841518704,126.96519648750058,2026-05-29 03:07:48,156,74,49
380,알고리즘 문제집 사용감 적어요,알고리즘 문제집 상태 양호합니다. 흑석동 근처에서 시간 맞춰 거래 가능합니다.,도서,78000,흑석동,37.50396562627274,126.96382711343017,2026-06-03 09:21:48,404,16,6
381,디퓨저 상태 좋아요,디퓨저 판매합니다. 봉천동 근처 직거래 가능하고 사용감은 적은 편입니다.,생활용품,124000,봉천동,37.48263329208138,126.93777516406574,2026-05-07 21:07:48,49,100,34
382,하네스 상태 좋아요,집 정리하면서 하네스 내놓습니다. 신림동에서 직거래 가능합니다.,반려동물용품,270000,신림동,37.48348956264477,126.93338421627897,2026-05-23 04:50:48,54,89,33
383,물그릇 필요하신 분 가져가세요,물그릇 상태 양호합니다. 사당동 근처에서 시간 맞춰 거래 가능합니다.,반려동물용품,297000,사당동,37.473925128906224,126.98519053247301,2026-06-02 03:37:48,270,61,49
384,에세이 필요하신 분 가져가세요,에세이 판매합니다. 대학동 근처 직거래 가능하고 사용감은 적은 편입니다.,도서,3000,대학동,37.46677828603981,126.93187194052452,2026-05-13 16:55:48,17,73,33
385,원피스 필요하신 분 가져가세요,사당동에서 거래 가능한 원피스입니다. 상태 좋고 빠른 거래 원합니다.,의류,44000,사당동,37.47583561547433,126.98025644094436,2026-05-22 20:08:48,269,33,34
386,전공서적 필요하신 분 가져가세요,집 정리하면서 전공서적 내놓습니다. 청룡동에서 직거래 가능합니다.,도서,73000,청룡동,37.481749113562984,126.95023777645441,2026-05-10 23:15:48,193,47,35
387,에세이 사용감 적어요,에세이 판매합니다. 상도동 근처 직거래 가능하고 사용감은 적은 편입니다.,도서,18000,상도동,37.495602786175496,126.93108343543116,2026-05-13 09:17:48,811,89,10
388,농구공 판매합니다,집 정리하면서 농구공 내놓습니다. 낙성대동에서 직거래 가능합니다.,스포츠/레저,498000,낙성대동,37.48105861787798,126.95795377434553,2026-05-16 15:54:48,103,18,30
389,제습기 급처합니다,사당동에서 거래 가능한 제습기입니다. 상태 좋고 빠른 거래 원합니다.,생활가전,321000,사당동,37.47816175229855,126.97946469233868,2026-06-03 17:21:48,963,51,39
390,플스5 게임 타이틀 상태 좋아요,집 정리하면서 플스5 게임 타이틀 내놓습니다. 흑석동에서 직거래 가능합니다.,게임/취미,15000,흑석동,37.505747464945436,126.96643959445353,2026-05-29 18:46:48,833,66,18
391,쿠션 급처합니다,낙성대동에서 거래 가능한 쿠션입니다. 상태 좋고 빠른 거래 원합니다.,생활용품,95000,낙성대동,37.47959672878976,126.95713127663358,2026-05-28 20:45:48,171,11,17
392,아기 장난감 급처합니다,신림동에서 거래 가능한 아기 장난감입니다. 상태 좋고 빠른 거래 원합니다.,유아용품,51000,신림동,37.48268095248248,126.93363287665066,2026-05-19 06:59:48,859,71,37
393,정보처리기사 교재 급처합니다,집 정리하면서 정보처리기사 교재 내놓습니다. 흑석동에서 직거래 가능합니다.,도서,76000,흑석동,37.5093863071287,126.96363169166254,2026-06-05 08:34:48,426,64,6
394,푸쉬업바 거의 새상품입니다,집 정리하면서 푸쉬업바 내놓습니다. 대학동에서 직거래 가능합니다.,스포츠/레저,499000,대학동,37.468996607634516,126.93955598805091,2026-05-23 22:15:48,798,31,48
395,스크래쳐 판매합니다,흑석동에서 거래 가능한 스크래쳐입니다. 상태 좋고 빠른 거래 원합니다.,반려동물용품,135000,흑석동,37.51081176101192,126.9666016139385,2026-06-03 04:05:48,817,28,43
396,젖병 소독기 판매합니다,젖병 소독기 판매합니다. 대학동 근처 직거래 가능하고 사용감은 적은 편입니다.,유아용품,152000,대학동,37.47114551504041,126.93358485747252,2026-06-03 04:02:48,776,43,4
397,침낭 급처합니다,침낭 판매합니다. 대학동 근처 직거래 가능하고 사용감은 적은 편입니다.,스포츠/레저,489000,대학동,37.472971122479414,126.9341486137193,2026-05-12 18:46:48,941,24,31
398,슬랙스 급처합니다,슬랙스 판매합니다. 청룡동 근처 직거래 가능하고 사용감은 적은 편입니다.,의류,218000,청룡동,37.47739878492655,126.94848487572638,2026-05-28 21:23:48,169,99,6
399,목줄 판매합니다,집 정리하면서 목줄 내놓습니다. 신림동에서 직거래 가능합니다.,반려동물용품,193000,신림동,37.48410805351607,126.93384394682678,2026-05-17 06:14:48,929,73,17
400,텀블러 필요하신 분 가져가세요,텀블러 상태 양호합니다. 청룡동 근처에서 시간 맞춰 거래 가능합니다.,생활용품,35000,청룡동,37.476525626470334,126.95117288961661,2026-06-03 23:54:48,443,61,34
401,옷장 저렴하게 내놓습니다,흑석동 인근에서 거래 원합니다. 옷장 필요하신 분 연락 주세요.,가구/인테리어,362000,흑석동,37.5048074782614,126.96221602325832,2026-06-05 16:02:48,225,48,37
402,알고리즘 문제집 거의 새상품입니다,청룡동 인근에서 거래 원합니다. 알고리즘 문제집 필요하신 분 연락 주세요.,도서,63000,청룡동,37.48043942880411,126.95189092943524,2026-05-05 21:24:48,384,23,31
403,침낭 필요하신 분 가져가세요,집 정리하면서 침낭 내놓습니다. 대학동에서 직거래 가능합니다.,스포츠/레저,97000,대학동,37.47280815459415,126.93984087581008,2026-05-18 12:09:48,712,29,6
404,디퓨저 필요하신 분 가져가세요,디퓨저 판매합니다. 청룡동 근처 직거래 가능하고 사용감은 적은 편입니다.,생활용품,41000,청룡동,37.486155617703,126.95619389915396,2026-05-21 16:34:48,441,63,8
405,베개 사용감 적어요,흑석동 인근에서 거래 원합니다. 베개 필요하신 분 연락 주세요.,생활용품,67000,흑석동,37.50543341880292,126.96075467324955,2026-05-18 22:42:48,417,12,44
406,자기계발서 저렴하게 내놓습니다,흑석동 인근에서 거래 원합니다. 자기계발서 필요하신 분 연락 주세요.,도서,36000,흑석동,37.50399835333614,126.95981237489217,2026-05-25 05:10:48,580,32,22
407,레고 세트 상태 좋아요,대학동 인근에서 거래 원합니다. 레고 세트 필요하신 분 연락 주세요.,게임/취미,337000,대학동,37.474496324491376,126.93561070998413,2026-05-15 00:14:48,803,94,28
408,자기계발서 상태 좋아요,낙성대동 인근에서 거래 원합니다. 자기계발서 필요하신 분 연락 주세요.,도서,56000,낙성대동,37.47341999488947,126.95588217939388,2026-05-15 21:09:48,424,9,5
409,캠핑 테이블 거의 새상품입니다,상도동 인근에서 거래 원합니다. 캠핑 테이블 필요하신 분 연락 주세요.,스포츠/레저,459000,상도동,37.49873989060874,126.92783886199103,2026-05-22 04:58:48,611,66,28
410,갤럭시 S23 급처합니다,대학동에서 거래 가능한 갤럭시 S23입니다. 상태 좋고 빠른 거래 원합니다.,디지털기기,235000,대학동,37.47108433743818,126.93206364913367,2026-05-31 04:39:48,107,8,30
411,아기 옷 세트 저렴하게 내놓습니다,봉천동 인근에서 거래 원합니다. 아기 옷 세트 필요하신 분 연락 주세요.,유아용품,321000,봉천동,37.47989355955477,126.94397593228251,2026-06-01 14:04:48,963,49,19
412,하네스 상태 좋아요,하네스 상태 양호합니다. 낙성대동 근처에서 시간 맞춰 거래 가능합니다.,반려동물용품,90000,낙성대동,37.47647193476669,126.96230898273144,2026-06-05 15:03:48,375,41,30
413,소설책 세트 이사 정리합니다,소설책 세트 상태 양호합니다. 낙성대동 근처에서 시간 맞춰 거래 가능합니다.,도서,25000,낙성대동,37.48057293710142,126.9579497737142,2026-05-17 21:16:48,656,95,40
414,도시락통 사용감 적어요,도시락통 상태 양호합니다. 흑석동 근처에서 시간 맞춰 거래 가능합니다.,생활용품,61000,흑석동,37.50639807043938,126.96163572915573,2026-05-11 14:17:48,325,46,26
415,게이밍 모니터 상태 좋아요,사당동 인근에서 거래 원합니다. 게이밍 모니터 필요하신 분 연락 주세요.,디지털기기,500000,사당동,37.47637067070451,126.97669132599576,2026-05-19 16:01:48,954,62,48
416,놀이매트 거의 새상품입니다,청룡동에서 거래 가능한 놀이매트입니다. 상태 좋고 빠른 거래 원합니다.,유아용품,285000,청룡동,37.4801475207962,126.9493326949533,2026-05-25 10:19:48,913,71,27
417,아기 그림책 필요하신 분 가져가세요,청룡동 인근에서 거래 원합니다. 아기 그림책 필요하신 분 연락 주세요.,유아용품,45000,청룡동,37.484275749404276,126.95454640290377,2026-05-22 20:30:48,539,97,39
418,전공서적 거의 새상품입니다,전공서적 판매합니다. 상도동 근처 직거래 가능하고 사용감은 적은 편입니다.,도서,11000,상도동,37.50077729413903,126.92872134130451,2026-05-31 12:27:48,123,81,29
419,그림 도구 급처합니다,사당동에서 거래 가능한 그림 도구입니다. 상태 좋고 빠른 거래 원합니다.,게임/취미,160000,사당동,37.47429195132889,126.98375195942211,2026-06-03 23:44:48,200,13,18
420,갤럭시탭 저렴하게 내놓습니다,낙성대동에서 거래 가능한 갤럭시탭입니다. 상태 좋고 빠른 거래 원합니다.,디지털기기,525000,낙성대동,37.48177963446165,126.95823684467204,2026-05-30 06:19:48,329,100,31
421,에어팟 프로 저렴하게 내놓습니다,낙성대동에서 거래 가능한 에어팟 프로입니다. 상태 좋고 빠른 거래 원합니다.,디지털기기,292000,낙성대동,37.473721922929265,126.96201539287941,2026-05-12 04:41:48,566,60,11
422,아기 그림책 판매합니다,아기 그림책 판매합니다. 봉천동 근처 직거래 가능하고 사용감은 적은 편입니다.,유아용품,202000,봉천동,37.48220834635312,126.9443099596779,2026-05-12 02:30:48,765,4,12
423,욕실 선반 이사 정리합니다,상도동 인근에서 거래 원합니다. 욕실 선반 필요하신 분 연락 주세요.,생활용품,85000,상도동,37.499809262529176,126.92853312740336,2026-05-30 19:59:48,53,95,35
424,정보처리기사 교재 사용감 적어요,정보처리기사 교재 판매합니다. 신림동 근처 직거래 가능하고 사용감은 적은 편입니다.,도서,17000,신림동,37.48714390397341,126.92984696860013,2026-05-28 20:18:48,342,1,10
425,놀이매트 급처합니다,신림동에서 거래 가능한 놀이매트입니다. 상태 좋고 빠른 거래 원합니다.,유아용품,302000,신림동,37.48291398663304,126.9248947990275,2026-05-10 18:15:48,714,76,9
426,협탁 저렴하게 내놓습니다,사당동에서 거래 가능한 협탁입니다. 상태 좋고 빠른 거래 원합니다.,가구/인테리어,40000,사당동,37.47267391656382,126.98147842881923,2026-05-24 20:36:48,728,68,50
427,농구공 사용감 적어요,농구공 판매합니다. 흑석동 근처 직거래 가능하고 사용감은 적은 편입니다.,스포츠/레저,15000,흑석동,37.512786630442704,126.96345302133163,2026-05-14 04:23:48,751,17,16
428,반려동물 방석 거의 새상품입니다,반려동물 방석 판매합니다. 흑석동 근처 직거래 가능하고 사용감은 적은 편입니다.,반려동물용품,293000,흑석동,37.506553244628584,126.96691349593391,2026-05-30 23:23:48,341,93,29
429,청소도구 세트 저렴하게 내놓습니다,집 정리하면서 청소도구 세트 내놓습니다. 낙성대동에서 직거래 가능합니다.,생활용품,78000,낙성대동,37.47955917907342,126.95865957732939,2026-05-10 08:11:48,385,58,0
430,컴퓨터 책상 사용감 적어요,청룡동 인근에서 거래 원합니다. 컴퓨터 책상 필요하신 분 연락 주세요.,가구/인테리어,379000,청룡동,37.48144069768811,126.95267549159568,2026-06-02 19:11:48,848,49,12
431,빨래 건조대 거의 새상품입니다,집 정리하면서 빨래 건조대 내놓습니다. 사당동에서 직거래 가능합니다.,생활용품,85000,사당동,37.47995193357898,126.97789774266322,2026-06-02 13:12:48,684,8,2
432,아이패드 에어 저렴하게 내놓습니다,아이패드 에어 판매합니다. 흑석동 근처 직거래 가능하고 사용감은 적은 편입니다.,디지털기기,121000,흑석동,37.50869909637912,126.96483970483999,2026-06-03 22:04:48,866,49,42
433,프라모델 판매합니다,프라모델 판매합니다. 사당동 근처 직거래 가능하고 사용감은 적은 편입니다.,게임/취미,77000,사당동,37.479610199490104,126.97720700188286,2026-06-05 10:04:48,513,10,29
434,디퓨저 사용감 적어요,디퓨저 상태 양호합니다. 신림동 근처에서 시간 맞춰 거래 가능합니다.,생활용품,71000,신림동,37.48864603482007,126.93360586745438,2026-05-20 14:59:48,82,38,4
435,캡슐 커피머신 급처합니다,캡슐 커피머신 판매합니다. 상도동 근처 직거래 가능하고 사용감은 적은 편입니다.,생활가전,108000,상도동,37.50018423480013,126.9315814160716,2026-05-19 19:30:48,593,80,11
436,인덕션 사용감 적어요,집 정리하면서 인덕션 내놓습니다. 흑석동에서 직거래 가능합니다.,생활가전,63000,흑석동,37.51037531881021,126.9639390047698,2026-05-31 11:10:48,421,64,21
437,디지털 피아노 사용감 적어요,디지털 피아노 상태 양호합니다. 사당동 근처에서 시간 맞춰 거래 가능합니다.,게임/취미,337000,사당동,37.4798615497504,126.97983450920049,2026-05-09 05:19:48,792,81,27
438,백팩 급처합니다,백팩 상태 양호합니다. 상도동 근처에서 시간 맞춰 거래 가능합니다.,의류,242000,상도동,37.50419824430921,126.92600195627855,2026-05-13 08:22:48,994,57,28
439,갤럭시워치 판매합니다,낙성대동 인근에서 거래 원합니다. 갤럭시워치 필요하신 분 연락 주세요.,디지털기기,26000,낙성대동,37.47951523071989,126.96303347906245,2026-05-27 09:32:48,886,40,1
440,머신러닝 입문서 상태 좋아요,봉천동에서 거래 가능한 머신러닝 입문서입니다. 상태 좋고 빠른 거래 원합니다.,도서,61000,봉천동,37.480098569058846,126.93916243838451,2026-05-25 12:37:48,281,46,37
441,자바 기본서 필요하신 분 가져가세요,청룡동에서 거래 가능한 자바 기본서입니다. 상태 좋고 빠른 거래 원합니다.,도서,44000,청룡동,37.48196232461777,126.95677655642146,2026-05-11 01:34:48,509,88,44
442,입문용 드론 판매합니다,상도동에서 거래 가능한 입문용 드론입니다. 상태 좋고 빠른 거래 원합니다.,게임/취미,62000,상도동,37.50390246083944,126.92720540528519,2026-05-07 06:23:48,910,55,26
443,볼캡 판매합니다,상도동에서 거래 가능한 볼캡입니다. 상태 좋고 빠른 거래 원합니다.,의류,83000,상도동,37.49786831627655,126.93297768652594,2026-05-20 15:25:48,562,72,9
444,사무용 의자 필요하신 분 가져가세요,사무용 의자 상태 양호합니다. 흑석동 근처에서 시간 맞춰 거래 가능합니다.,가구/인테리어,304000,흑석동,37.507743224038784,126.95992189045371,2026-05-20 14:31:48,452,37,50
445,전기장판 판매합니다,상도동 인근에서 거래 원합니다. 전기장판 필요하신 분 연락 주세요.,생활가전,53000,상도동,37.50222032919637,126.93080922501976,2026-05-24 00:18:48,802,89,8
446,운동화 필요하신 분 가져가세요,운동화 상태 양호합니다. 청룡동 근처에서 시간 맞춰 거래 가능합니다.,의류,162000,청룡동,37.48396771898792,126.95093411641156,2026-05-13 00:30:48,258,9,17
447,플스4 게임 타이틀 저렴하게 내놓습니다,집 정리하면서 플스4 게임 타이틀 내놓습니다. 상도동에서 직거래 가능합니다.,게임/취미,379000,상도동,37.494842068303356,126.92904818847546,2026-05-25 10:25:48,362,76,41
448,헬스 장갑 이사 정리합니다,집 정리하면서 헬스 장갑 내놓습니다. 낙성대동에서 직거래 가능합니다.,스포츠/레저,27000,낙성대동,37.47937733782593,126.9621276414518,2026-05-07 09:33:48,711,47,9
449,에어프라이어 급처합니다,낙성대동 인근에서 거래 원합니다. 에어프라이어 필요하신 분 연락 주세요.,생활가전,17000,낙성대동,37.476511903037334,126.95691876719066,2026-05-25 17:54:48,123,39,28
450,욕실 선반 급처합니다,욕실 선반 상태 양호합니다. 대학동 근처에서 시간 맞춰 거래 가능합니다.,생활용품,126000,대학동,37.46578388512556,126.93763004943327,2026-05-16 17:36:48,721,89,42
451,냄비 세트 거의 새상품입니다,낙성대동에서 거래 가능한 냄비 세트입니다. 상태 좋고 빠른 거래 원합니다.,생활용품,75000,낙성대동,37.47834757871815,126.9536833417525,2026-05-29 18:06:48,287,6,29
452,기저귀 정리함 거의 새상품입니다,사당동에서 거래 가능한 기저귀 정리함입니다. 상태 좋고 빠른 거래 원합니다.,유아용품,14000,사당동,37.4813661193989,126.97759603711843,2026-05-26 20:21:48,246,48,32
453,테니스 라켓 저렴하게 내놓습니다,테니스 라켓 판매합니다. 낙성대동 근처 직거래 가능하고 사용감은 적은 편입니다.,스포츠/레저,261000,낙성대동,37.472197524032545,126.96282270115684,2026-05-06 02:10:48,958,91,1
454,컴퓨터활용능력 교재 이사 정리합니다,컴퓨터활용능력 교재 판매합니다. 상도동 근처 직거래 가능하고 사용감은 적은 편입니다.,도서,5000,상도동,37.49696204765707,126.93578244267245,2026-05-24 19:23:48,373,80,19
455,텀블러 판매합니다,집 정리하면서 텀블러 내놓습니다. 대학동에서 직거래 가능합니다.,생활용품,10000,대학동,37.47457175314969,126.9383693175895,2026-05-05 23:28:48,240,19,21
456,헤어드라이기 급처합니다,헤어드라이기 판매합니다. 상도동 근처 직거래 가능하고 사용감은 적은 편입니다.,생활가전,303000,상도동,37.49909169185327,126.92731772132268,2026-06-01 03:26:48,941,77,21
457,수납장 급처합니다,낙성대동 인근에서 거래 원합니다. 수납장 필요하신 분 연락 주세요.,가구/인테리어,362000,낙성대동,37.473251523948925,126.96293029946423,2026-05-13 23:47:48,148,55,49
458,스탠드 조명 저렴하게 내놓습니다,스탠드 조명 판매합니다. 봉천동 근처 직거래 가능하고 사용감은 적은 편입니다.,가구/인테리어,172000,봉천동,37.48640131900108,126.9407404015542,2026-05-10 11:59:48,40,97,20
459,분유포트 이사 정리합니다,분유포트 판매합니다. 대학동 근처 직거래 가능하고 사용감은 적은 편입니다.,유아용품,101000,대학동,37.47176946505508,126.93785604511254,2026-06-02 12:34:48,36,97,39
460,피규어 급처합니다,청룡동에서 거래 가능한 피규어입니다. 상태 좋고 빠른 거래 원합니다.,게임/취미,372000,청룡동,37.48466138235962,126.95238763498305,2026-06-02 17:56:48,498,17,32
461,실내 자전거 필요하신 분 가져가세요,집 정리하면서 실내 자전거 내놓습니다. 흑석동에서 직거래 가능합니다.,스포츠/레저,75000,흑석동,37.51348815080934,126.96785435083135,2026-05-31 10:31:48,43,52,48
462,아기 식탁의자 급처합니다,청룡동에서 거래 가능한 아기 식탁의자입니다. 상태 좋고 빠른 거래 원합니다.,유아용품,95000,청룡동,37.479448956268044,126.9522754492944,2026-05-07 01:50:48,641,62,44
463,반팔 티셔츠 필요하신 분 가져가세요,반팔 티셔츠 상태 양호합니다. 신림동 근처에서 시간 맞춰 거래 가능합니다.,의류,193000,신림동,37.48859139133263,126.92971934451117,2026-05-10 03:59:48,330,50,39
464,쿠션 판매합니다,집 정리하면서 쿠션 내놓습니다. 봉천동에서 직거래 가능합니다.,생활용품,119000,봉천동,37.481556111966356,126.9439517008155,2026-05-10 14:49:48,261,66,34
465,멀티탭 판매합니다,청룡동 인근에서 거래 원합니다. 멀티탭 필요하신 분 연락 주세요.,생활용품,115000,청룡동,37.477864866016986,126.95064419725337,2026-05-24 06:56:48,857,36,29
466,블루투스 스피커 상태 좋아요,집 정리하면서 블루투스 스피커 내놓습니다. 흑석동에서 직거래 가능합니다.,디지털기기,112000,흑석동,37.51317842457699,126.96556114141839,2026-05-13 00:38:48,194,99,37
467,암막 커튼 필요하신 분 가져가세요,집 정리하면서 암막 커튼 내놓습니다. 사당동에서 직거래 가능합니다.,가구/인테리어,22000,사당동,37.480425484473606,126.9775017966129,2026-05-31 02:08:48,928,91,12
468,실내 자전거 저렴하게 내놓습니다,봉천동에서 거래 가능한 실내 자전거입니다. 상태 좋고 빠른 거래 원합니다.,스포츠/레저,366000,봉천동,37.48144087374261,126.94451066594236,2026-05-21 20:22:48,97,67,45
469,청소도구 세트 필요하신 분 가져가세요,상도동에서 거래 가능한 청소도구 세트입니다. 상태 좋고 빠른 거래 원합니다.,생활용품,46000,상도동,37.4962212409637,126.92744607373915,2026-05-07 06:09:48,902,84,9
470,무선 마우스 거의 새상품입니다,집 정리하면서 무선 마우스 내놓습니다. 대학동에서 직거래 가능합니다.,디지털기기,315000,대학동,37.46563532898594,126.93945395807125,2026-05-16 11:38:48,930,16,12
471,게이밍 마우스 이사 정리합니다,게이밍 마우스 상태 양호합니다. 흑석동 근처에서 시간 맞춰 거래 가능합니다.,디지털기기,846000,흑석동,37.50968862327184,126.96335711989803,2026-06-04 20:49:48,515,30,13
472,블록 장난감 저렴하게 내놓습니다,블록 장난감 판매합니다. 신림동 근처 직거래 가능하고 사용감은 적은 편입니다.,유아용품,285000,신림동,37.48104839987369,126.92455063938002,2026-05-27 21:05:48,580,26,3
473,덤벨 세트 상태 좋아요,덤벨 세트 상태 양호합니다. 신림동 근처에서 시간 맞춰 거래 가능합니다.,스포츠/레저,434000,신림동,37.48028887645729,126.93393735180634,2026-05-17 07:24:48,952,11,3
474,원목 식탁 상태 좋아요,원목 식탁 상태 양호합니다. 흑석동 근처에서 시간 맞춰 거래 가능합니다.,가구/인테리어,194000,흑석동,37.507485694254754,126.9623893935159,2026-05-07 15:40:48,796,38,20
475,고데기 저렴하게 내놓습니다,집 정리하면서 고데기 내놓습니다. 대학동에서 직거래 가능합니다.,생활가전,78000,대학동,37.46973757909273,126.93389845369279,2026-06-01 17:50:48,291,42,33
476,볼캡 판매합니다,볼캡 상태 양호합니다. 봉천동 근처에서 시간 맞춰 거래 가능합니다.,의류,191000,봉천동,37.48364778021081,126.94448184843854,2026-05-16 00:40:48,505,92,44
477,경제 경영 도서 사용감 적어요,경제 경영 도서 상태 양호합니다. 대학동 근처에서 시간 맞춰 거래 가능합니다.,도서,76000,대학동,37.47056396925447,126.93909184744,2026-05-17 04:46:48,142,78,36
478,강아지 장난감 상태 좋아요,청룡동 인근에서 거래 원합니다. 강아지 장난감 필요하신 분 연락 주세요.,반려동물용품,102000,청룡동,37.477379257239214,126.9561806978857,2026-06-05 13:44:48,486,80,50
479,우쿨렐레 필요하신 분 가져가세요,신림동 인근에서 거래 원합니다. 우쿨렐레 필요하신 분 연락 주세요.,게임/취미,363000,신림동,37.48610017061544,126.92654417522179,2026-05-18 20:32:48,21,81,12
480,선풍기 거의 새상품입니다,사당동에서 거래 가능한 선풍기입니다. 상태 좋고 빠른 거래 원합니다.,생활가전,68000,사당동,37.477759933429965,126.97689117381812,2026-05-15 06:24:48,415,92,36
481,싱글 매트리스 사용감 적어요,집 정리하면서 싱글 매트리스 내놓습니다. 사당동에서 직거래 가능합니다.,가구/인테리어,479000,사당동,37.47787200487708,126.9855205832679,2026-05-21 15:04:48,149,61,9
482,장우산 이사 정리합니다,상도동에서 거래 가능한 장우산입니다. 상태 좋고 빠른 거래 원합니다.,생활용품,136000,상도동,37.49995885475715,126.92808262470196,2026-05-26 21:59:48,704,40,35
483,침낭 저렴하게 내놓습니다,낙성대동 인근에서 거래 원합니다. 침낭 필요하신 분 연락 주세요.,스포츠/레저,435000,낙성대동,37.47750981641156,126.95749566273894,2026-06-05 06:21:48,651,68,10
484,Xbox 컨트롤러 거의 새상품입니다,사당동에서 거래 가능한 Xbox 컨트롤러입니다. 상태 좋고 빠른 거래 원합니다.,게임/취미,283000,사당동,37.476119063296125,126.98610726749767,2026-05-23 14:14:48,908,30,23
485,로퍼 거의 새상품입니다,낙성대동에서 거래 가능한 로퍼입니다. 상태 좋고 빠른 거래 원합니다.,의류,100000,낙성대동,37.476859946926304,126.96159025278409,2026-05-11 14:56:48,216,11,28
486,빨래 건조대 급처합니다,집 정리하면서 빨래 건조대 내놓습니다. 사당동에서 직거래 가능합니다.,생활용품,137000,사당동,37.478367172887374,126.97792717156449,2026-05-27 06:36:48,797,12,33
487,게이밍 마우스 필요하신 분 가져가세요,봉천동에서 거래 가능한 게이밍 마우스입니다. 상태 좋고 빠른 거래 원합니다.,디지털기기,338000,봉천동,37.48093289753399,126.94549185875998,2026-05-07 15:02:48,878,76,5
488,미니 냉장고 거의 새상품입니다,미니 냉장고 상태 양호합니다. 신림동 근처에서 시간 맞춰 거래 가능합니다.,생활가전,398000,신림동,37.481125456396235,126.92676649538669,2026-05-26 19:48:48,224,41,12
489,배드민턴 라켓 저렴하게 내놓습니다,배드민턴 라켓 판매합니다. 대학동 근처 직거래 가능하고 사용감은 적은 편입니다.,스포츠/레저,85000,대학동,37.47074060661959,126.93386577379574,2026-05-28 13:45:48,991,79,35
490,농구공 사용감 적어요,농구공 판매합니다. 대학동 근처 직거래 가능하고 사용감은 적은 편입니다.,스포츠/레저,487000,대학동,37.46871377559701,126.94072243104718,2026-05-14 07:09:48,260,21,4
491,방향제 판매합니다,낙성대동에서 거래 가능한 방향제입니다. 상태 좋고 빠른 거래 원합니다.,생활용품,123000,낙성대동,37.472661195804655,126.95751916760646,2026-05-07 19:42:48,118,49,3
492,만화책 세트 이사 정리합니다,사당동 인근에서 거래 원합니다. 만화책 세트 필요하신 분 연락 주세요.,게임/취미,345000,사당동,37.4723854560743,126.98582783991365,2026-05-10 10:00:48,786,85,34
493,목줄 상태 좋아요,집 정리하면서 목줄 내놓습니다. 봉천동에서 직거래 가능합니다.,반려동물용품,52000,봉천동,37.48225396564234,126.93891694213654,2026-05-22 07:02:48,669,90,49
494,맨투맨 거의 새상품입니다,집 정리하면서 맨투맨 내놓습니다. 사당동에서 직거래 가능합니다.,의류,51000,사당동,37.4764750673257,126.97725365198816,2026-05-13 19:24:48,817,41,29
495,로봇청소기 이사 정리합니다,로봇청소기 판매합니다. 흑석동 근처 직거래 가능하고 사용감은 적은 편입니다.,생활가전,154000,흑석동,37.50482932210309,126.96677552892226,2026-05-12 05:07:48,598,16,32
496,무선청소기 저렴하게 내놓습니다,무선청소기 상태 양호합니다. 대학동 근처에서 시간 맞춰 거래 가능합니다.,생활가전,246000,대학동,37.47107949017279,126.94153891731222,2026-05-23 22:19:48,254,79,15
497,카시트 사용감 적어요,카시트 상태 양호합니다. 청룡동 근처에서 시간 맞춰 거래 가능합니다.,유아용품,225000,청룡동,37.48314133156808,126.94943085456062,2026-05-11 03:09:48,816,43,34
498,인덕션 이사 정리합니다,인덕션 상태 양호합니다. 봉천동 근처에서 시간 맞춰 거래 가능합니다.,생활가전,315000,봉천동,37.480680357235364,126.9406579369716,2026-05-22 06:10:48,109,56,11
499,Xbox 컨트롤러 필요하신 분 가져가세요,집 정리하면서 Xbox 컨트롤러 내놓습니다. 사당동에서 직거래 가능합니다.,게임/취미,67000,사당동,37.47796132820024,126.97660184340455,2026-06-03 09:53:48,152,74,48
500,서랍장 이사 정리합니다,집 정리하면서 서랍장 내놓습니다. 대학동에서 직거래 가능합니다.,가구/인테리어,325000,대학동,37.468597353342936,126.93974346659729,2026-05-18 02:33:48,220,87,20
501,머신러닝 입문서 필요하신 분 가져가세요,사당동에서 거래 가능한 머신러닝 입문서입니다. 상태 좋고 빠른 거래 원합니다.,도서,77000,사당동,37.472224105585305,126.98561075695075,2026-06-04 21:13:48,423,16,18
502,아이폰 13 사용감 적어요,봉천동 인근에서 거래 원합니다. 아이폰 13 필요하신 분 연락 주세요.,디지털기기,51000,봉천동,37.480781273096184,126.9404278961484,2026-05-29 03:01:48,614,50,40
503,아기 장난감 급처합니다,집 정리하면서 아기 장난감 내놓습니다. 낙성대동에서 직거래 가능합니다.,유아용품,76000,낙성대동,37.473342672908935,126.9635745604301,2026-05-29 23:21:48,873,46,26
504,서랍장 판매합니다,봉천동에서 거래 가능한 서랍장입니다. 상태 좋고 빠른 거래 원합니다.,가구/인테리어,83000,봉천동,37.47897220268266,126.94465941614627,2026-05-13 01:03:48,457,17,5
505,스크래쳐 필요하신 분 가져가세요,집 정리하면서 스크래쳐 내놓습니다. 낙성대동에서 직거래 가능합니다.,반려동물용품,263000,낙성대동,37.47405740918411,126.95784771857296,2026-05-22 22:53:48,470,49,22
506,맥북 에어 이사 정리합니다,맥북 에어 상태 양호합니다. 청룡동 근처에서 시간 맞춰 거래 가능합니다.,디지털기기,295000,청룡동,37.48188149577702,126.95474882542554,2026-05-22 23:09:48,385,4,2
507,인덕션 이사 정리합니다,인덕션 판매합니다. 봉천동 근처 직거래 가능하고 사용감은 적은 편입니다.,생활가전,383000,봉천동,37.482249363273155,126.93738234601939,2026-05-12 23:51:48,778,99,17
508,플스4 게임 타이틀 급처합니다,흑석동에서 거래 가능한 플스4 게임 타이틀입니다. 상태 좋고 빠른 거래 원합니다.,게임/취미,557000,흑석동,37.50915033261616,126.95870783400154,2026-05-10 22:26:48,637,6,21
509,반려동물 방석 이사 정리합니다,집 정리하면서 반려동물 방석 내놓습니다. 사당동에서 직거래 가능합니다.,반려동물용품,183000,사당동,37.480828645160614,126.9840942527938,2026-05-06 07:27:48,181,4,44
510,프라모델 판매합니다,프라모델 상태 양호합니다. 흑석동 근처에서 시간 맞춰 거래 가능합니다.,게임/취미,178000,흑석동,37.504072980875286,126.96344760188181,2026-05-18 15:03:48,308,94,39
511,화장대 저렴하게 내놓습니다,대학동 인근에서 거래 원합니다. 화장대 필요하신 분 연락 주세요.,가구/인테리어,77000,대학동,37.473014291658366,126.93783821539691,2026-05-17 08:28:48,888,32,0
512,게임 패드 이사 정리합니다,게임 패드 판매합니다. 사당동 근처 직거래 가능하고 사용감은 적은 편입니다.,게임/취미,272000,사당동,37.480220144280274,126.98002847995342,2026-05-10 18:30:48,506,23,33
513,믹서기 상태 좋아요,집 정리하면서 믹서기 내놓습니다. 흑석동에서 직거래 가능합니다.,생활가전,206000,흑석동,37.50590856747461,126.9659436111094,2026-05-28 19:17:48,753,81,10
514,덤벨 세트 거의 새상품입니다,봉천동에서 거래 가능한 덤벨 세트입니다. 상태 좋고 빠른 거래 원합니다.,스포츠/레저,90000,봉천동,37.48708251774553,126.94582459248696,2026-05-22 04:15:48,318,60,47
515,바람막이 필요하신 분 가져가세요,흑석동 인근에서 거래 원합니다. 바람막이 필요하신 분 연락 주세요.,의류,42000,흑석동,37.5105849340525,126.96821762722807,2026-05-20 03:45:48,305,57,24
516,갤럭시 S22 사용감 적어요,갤럭시 S22 상태 양호합니다. 상도동 근처에서 시간 맞춰 거래 가능합니다.,디지털기기,687000,상도동,37.49715343918907,126.93184176833861,2026-05-09 08:24:48,286,34,6
517,물그릇 급처합니다,물그릇 상태 양호합니다. 청룡동 근처에서 시간 맞춰 거래 가능합니다.,반려동물용품,175000,청룡동,37.4829280185974,126.95601689499824,2026-05-14 18:34:48,330,70,0
518,무선 마우스 저렴하게 내놓습니다,집 정리하면서 무선 마우스 내놓습니다. 봉천동에서 직거래 가능합니다.,디지털기기,379000,봉천동,37.47783700472857,126.93751941282576,2026-05-28 17:27:48,267,24,2
519,레고 세트 저렴하게 내놓습니다,봉천동에서 거래 가능한 레고 세트입니다. 상태 좋고 빠른 거래 원합니다.,게임/취미,138000,봉천동,37.48563200065845,126.93844768616378,2026-05-23 18:57:48,931,82,36
520,토스터기 거의 새상품입니다,집 정리하면서 토스터기 내놓습니다. 대학동에서 직거래 가능합니다.,생활가전,348000,대학동,37.46986983398886,126.9408339149287,2026-05-07 14:05:48,474,35,49
521,캠핑 의자 상태 좋아요,봉천동 인근에서 거래 원합니다. 캠핑 의자 필요하신 분 연락 주세요.,스포츠/레저,402000,봉천동,37.48715605699217,126.93924664852454,2026-06-04 04:21:48,350,7,16
522,고양이 캣타워 이사 정리합니다,고양이 캣타워 상태 양호합니다. 청룡동 근처에서 시간 맞춰 거래 가능합니다.,반려동물용품,204000,청룡동,37.48388707323307,126.94988386498197,2026-05-30 20:14:48,121,18,34
523,전기히터 거의 새상품입니다,봉천동에서 거래 가능한 전기히터입니다. 상태 좋고 빠른 거래 원합니다.,생활가전,47000,봉천동,37.47778764793102,126.94157701377785,2026-06-02 21:59:48,266,99,28
524,아이폰 14 필요하신 분 가져가세요,아이폰 14 판매합니다. 대학동 근처 직거래 가능하고 사용감은 적은 편입니다.,디지털기기,736000,대학동,37.4749991107323,126.93670679453896,2026-05-26 04:09:48,13,65,45
525,아기 장난감 저렴하게 내놓습니다,청룡동에서 거래 가능한 아기 장난감입니다. 상태 좋고 빠른 거래 원합니다.,유아용품,201000,청룡동,37.48187243885512,126.95705042187508,2026-05-05 17:53:48,808,61,7
526,텐트 거의 새상품입니다,상도동에서 거래 가능한 텐트입니다. 상태 좋고 빠른 거래 원합니다.,스포츠/레저,328000,상도동,37.49540456784675,126.93059639353756,2026-05-05 20:40:48,384,68,21
527,전공서적 급처합니다,전공서적 상태 양호합니다. 낙성대동 근처에서 시간 맞춰 거래 가능합니다.,도서,8000,낙성대동,37.47570104725185,126.95466768016746,2026-05-06 04:03:48,205,38,44
528,테니스 라켓 저렴하게 내놓습니다,테니스 라켓 판매합니다. 흑석동 근처 직거래 가능하고 사용감은 적은 편입니다.,스포츠/레저,76000,흑석동,37.508692325504775,126.95922992630845,2026-06-04 10:44:48,747,75,15
529,도시락통 이사 정리합니다,흑석동에서 거래 가능한 도시락통입니다. 상태 좋고 빠른 거래 원합니다.,생활용품,12000,흑석동,37.50785507855998,126.96071678175682,2026-05-26 15:24:48,816,92,2
530,방향제 상태 좋아요,청룡동에서 거래 가능한 방향제입니다. 상태 좋고 빠른 거래 원합니다.,생활용품,12000,청룡동,37.48527178878174,126.9538837208305,2026-05-13 12:14:48,679,2,30
531,맨투맨 판매합니다,낙성대동에서 거래 가능한 맨투맨입니다. 상태 좋고 빠른 거래 원합니다.,의류,236000,낙성대동,37.47243957615329,126.96177470394868,2026-05-27 13:16:48,635,21,37
532,전기장판 급처합니다,전기장판 판매합니다. 봉천동 근처 직거래 가능하고 사용감은 적은 편입니다.,생활가전,228000,봉천동,37.48735853269429,126.94235967010452,2026-05-25 17:02:48,421,41,7
533,스탠드 조명 급처합니다,스탠드 조명 상태 양호합니다. 신림동 근처에서 시간 맞춰 거래 가능합니다.,가구/인테리어,98000,신림동,37.48335154324234,126.9309629578568,2026-05-26 14:38:48,290,18,48
534,청소도구 세트 이사 정리합니다,청소도구 세트 상태 양호합니다. 청룡동 근처에서 시간 맞춰 거래 가능합니다.,생활용품,13000,청룡동,37.47996131056083,126.9492775366139,2026-06-01 12:55:48,877,80,39
535,고양이 캣타워 판매합니다,고양이 캣타워 판매합니다. 신림동 근처 직거래 가능하고 사용감은 적은 편입니다.,반려동물용품,48000,신림동,37.48613503527399,126.93192240714822,2026-05-13 20:08:48,918,36,26
536,사료 보관통 상태 좋아요,사료 보관통 판매합니다. 청룡동 근처 직거래 가능하고 사용감은 적은 편입니다.,반려동물용품,141000,청룡동,37.48311673569662,126.95366271970718,2026-05-20 02:19:48,254,22,39
537,목줄 저렴하게 내놓습니다,대학동 인근에서 거래 원합니다. 목줄 필요하신 분 연락 주세요.,반려동물용품,217000,대학동,37.47536791479406,126.93798920939878,2026-06-04 23:30:48,206,15,33
538,쿠션 급처합니다,쿠션 판매합니다. 흑석동 근처 직거래 가능하고 사용감은 적은 편입니다.,생활용품,73000,흑석동,37.51223781694536,126.9677148437168,2026-06-04 10:38:48,825,19,43
539,고양이 화장실 상태 좋아요,신림동에서 거래 가능한 고양이 화장실입니다. 상태 좋고 빠른 거래 원합니다.,반려동물용품,189000,신림동,37.48725153674558,126.93158408020832,2026-05-27 10:18:48,267,42,39
540,갤럭시 S22 판매합니다,갤럭시 S22 판매합니다. 낙성대동 근처 직거래 가능하고 사용감은 적은 편입니다.,디지털기기,824000,낙성대동,37.47901403080559,126.95952706662266,2026-06-05 01:13:48,128,9,15
541,자전거 헬멧 급처합니다,자전거 헬멧 판매합니다. 사당동 근처 직거래 가능하고 사용감은 적은 편입니다.,스포츠/레저,403000,사당동,37.47572595457359,126.97859955831287,2026-06-02 06:31:48,110,30,47
542,블루종 자켓 이사 정리합니다,흑석동에서 거래 가능한 블루종 자켓입니다. 상태 좋고 빠른 거래 원합니다.,의류,232000,흑석동,37.5055806076547,126.96233485081915,2026-05-23 12:32:48,960,78,29
543,사료 보관통 급처합니다,사당동 인근에서 거래 원합니다. 사료 보관통 필요하신 분 연락 주세요.,반려동물용품,106000,사당동,37.47440604154888,126.9777110927054,2026-05-26 12:43:48,718,72,3
544,강아지 장난감 필요하신 분 가져가세요,낙성대동 인근에서 거래 원합니다. 강아지 장난감 필요하신 분 연락 주세요.,반려동물용품,115000,낙성대동,37.48085578100457,126.9593812144585,2026-05-08 07:07:48,170,81,39
545,화장품 정리함 저렴하게 내놓습니다,화장품 정리함 상태 양호합니다. 상도동 근처에서 시간 맞춰 거래 가능합니다.,생활용품,128000,상도동,37.49474503856972,126.93028110366583,2026-05-09 10:08:48,494,59,17
546,청바지 사용감 적어요,청바지 상태 양호합니다. 상도동 근처에서 시간 맞춰 거래 가능합니다.,의류,61000,상도동,37.49877771853359,126.9264422419548,2026-05-07 22:36:48,945,73,0
547,사료 보관통 판매합니다,사료 보관통 상태 양호합니다. 상도동 근처에서 시간 맞춰 거래 가능합니다.,반려동물용품,204000,상도동,37.49700511492514,126.93158486966439,2026-05-20 17:53:48,110,57,31
548,블루투스 스피커 필요하신 분 가져가세요,블루투스 스피커 판매합니다. 청룡동 근처 직거래 가능하고 사용감은 적은 편입니다.,디지털기기,387000,청룡동,37.48289035608357,126.94931802833551,2026-05-27 09:04:48,102,2,30
549,배변패드 판매합니다,집 정리하면서 배변패드 내놓습니다. 흑석동에서 직거래 가능합니다.,반려동물용품,73000,흑석동,37.50844295787393,126.96493402302872,2026-05-08 18:20:48,199,47,40
550,헤어드라이기 사용감 적어요,신림동 인근에서 거래 원합니다. 헤어드라이기 필요하신 분 연락 주세요.,생활가전,228000,신림동,37.484952293675725,126.92607146426944,2026-05-12 08:01:48,978,78,34
551,스팀다리미 사용감 적어요,스팀다리미 상태 양호합니다. 신림동 근처에서 시간 맞춰 거래 가능합니다.,생활가전,355000,신림동,37.48539133450396,126.92765571143973,2026-05-25 15:38:48,402,46,29
552,전신거울 저렴하게 내놓습니다,전신거울 판매합니다. 청룡동 근처 직거래 가능하고 사용감은 적은 편입니다.,가구/인테리어,181000,청룡동,37.48559147932472,126.95350119385354,2026-05-28 23:38:48,674,61,47
553,청바지 사용감 적어요,사당동 인근에서 거래 원합니다. 청바지 필요하신 분 연락 주세요.,의류,133000,사당동,37.47505226581785,126.98146226905148,2026-05-15 03:28:48,65,8,23
554,수납 박스 이사 정리합니다,집 정리하면서 수납 박스 내놓습니다. 대학동에서 직거래 가능합니다.,생활용품,97000,대학동,37.47451903213292,126.93637874119933,2026-05-10 19:01:48,838,8,12
555,헤어드라이기 상태 좋아요,대학동에서 거래 가능한 헤어드라이기입니다. 상태 좋고 빠른 거래 원합니다.,생활가전,65000,대학동,37.46710498068891,126.93384256158477,2026-05-31 08:38:48,723,18,31
556,갤럭시워치 필요하신 분 가져가세요,집 정리하면서 갤럭시워치 내놓습니다. 낙성대동에서 직거래 가능합니다.,디지털기기,375000,낙성대동,37.47369060658685,126.9538203661853,2026-05-23 01:58:48,670,2,18
557,로퍼 사용감 적어요,로퍼 상태 양호합니다. 상도동 근처에서 시간 맞춰 거래 가능합니다.,의류,92000,상도동,37.50125855345852,126.93130166229918,2026-05-15 19:55:48,344,62,37
558,방향제 이사 정리합니다,방향제 상태 양호합니다. 대학동 근처에서 시간 맞춰 거래 가능합니다.,생활용품,36000,대학동,37.47044243112593,126.94150724048377,2026-05-08 07:35:48,818,33,14
559,갤럭시 S23 사용감 적어요,집 정리하면서 갤럭시 S23 내놓습니다. 대학동에서 직거래 가능합니다.,디지털기기,190000,대학동,37.47533206089253,126.94019331676871,2026-05-17 11:00:48,558,36,11
560,침대 프레임 급처합니다,봉천동에서 거래 가능한 침대 프레임입니다. 상태 좋고 빠른 거래 원합니다.,가구/인테리어,172000,봉천동,37.47965155361909,126.94367134381194,2026-05-18 12:17:48,276,47,11
561,침낭 상태 좋아요,집 정리하면서 침낭 내놓습니다. 사당동에서 직거래 가능합니다.,스포츠/레저,281000,사당동,37.48091068915869,126.98428518165836,2026-05-30 23:26:48,134,3,25
562,스크래쳐 사용감 적어요,낙성대동에서 거래 가능한 스크래쳐입니다. 상태 좋고 빠른 거래 원합니다.,반려동물용품,282000,낙성대동,37.48075977454556,126.96329605557204,2026-05-20 06:04:48,732,37,30
563,게임 패드 이사 정리합니다,사당동에서 거래 가능한 게임 패드입니다. 상태 좋고 빠른 거래 원합니다.,게임/취미,495000,사당동,37.47468082200771,126.98061629921925,2026-05-08 15:37:48,704,70,7
564,트레이닝 팬츠 사용감 적어요,봉천동 인근에서 거래 원합니다. 트레이닝 팬츠 필요하신 분 연락 주세요.,의류,19000,봉천동,37.485412833557696,126.94427095120831,2026-05-16 20:33:48,607,67,14
565,롱패딩 저렴하게 내놓습니다,흑석동에서 거래 가능한 롱패딩입니다. 상태 좋고 빠른 거래 원합니다.,의류,136000,흑석동,37.50891555842634,126.95916047617708,2026-05-24 10:14:48,335,77,38
566,낚시대 상태 좋아요,상도동 인근에서 거래 원합니다. 낚시대 필요하신 분 연락 주세요.,스포츠/레저,202000,상도동,37.50437523628217,126.93474301735766,2026-05-25 16:27:48,363,44,19
567,공기청정기 이사 정리합니다,집 정리하면서 공기청정기 내놓습니다. 상도동에서 직거래 가능합니다.,생활가전,157000,상도동,37.49599567686882,126.93187180067584,2026-05-30 16:48:48,444,93,26
568,믹서기 급처합니다,집 정리하면서 믹서기 내놓습니다. 대학동에서 직거래 가능합니다.,생활가전,278000,대학동,37.469357724097996,126.93186618867885,2026-05-26 13:46:48,993,75,48
569,경제 경영 도서 상태 좋아요,경제 경영 도서 상태 양호합니다. 흑석동 근처에서 시간 맞춰 거래 가능합니다.,도서,20000,흑석동,37.508705856180356,126.96682799219387,2026-05-30 10:52:48,400,37,35
570,코딩 테스트 책 거의 새상품입니다,코딩 테스트 책 상태 양호합니다. 흑석동 근처에서 시간 맞춰 거래 가능합니다.,도서,62000,흑석동,37.50680169407994,126.96500555209177,2026-05-29 15:55:48,12,19,16
571,고양이 캣타워 거의 새상품입니다,고양이 캣타워 판매합니다. 상도동 근처 직거래 가능하고 사용감은 적은 편입니다.,반려동물용품,254000,상도동,37.50224718355814,126.93093050225036,2026-05-06 18:04:48,260,3,7
572,스팀다리미 사용감 적어요,스팀다리미 상태 양호합니다. 흑석동 근처에서 시간 맞춰 거래 가능합니다.,생활가전,233000,흑석동,37.511982807946175,126.96233202215973,2026-05-09 08:05:48,712,60,44
573,닌텐도 스위치 거의 새상품입니다,닌텐도 스위치 상태 양호합니다. 낙성대동 근처에서 시간 맞춰 거래 가능합니다.,게임/취미,64000,낙성대동,37.47537385465229,126.95412888328379,2026-06-01 06:16:48,909,88,8
574,자전거 헬멧 사용감 적어요,신림동 인근에서 거래 원합니다. 자전거 헬멧 필요하신 분 연락 주세요.,스포츠/레저,154000,신림동,37.48686442437679,126.92583247497414,2026-05-19 19:46:48,88,65,12
575,스팀다리미 상태 좋아요,사당동 인근에서 거래 원합니다. 스팀다리미 필요하신 분 연락 주세요.,생활가전,360000,사당동,37.475225226773006,126.98194420323223,2026-05-11 07:28:48,711,89,44
576,폼롤러 판매합니다,폼롤러 상태 양호합니다. 낙성대동 근처에서 시간 맞춰 거래 가능합니다.,스포츠/레저,149000,낙성대동,37.4739787621196,126.95863382893064,2026-05-25 01:19:48,358,20,6
577,토트백 저렴하게 내놓습니다,집 정리하면서 토트백 내놓습니다. 상도동에서 직거래 가능합니다.,의류,239000,상도동,37.49808209912416,126.93291050703544,2026-06-03 12:53:48,144,2,30
578,옷장 사용감 적어요,낙성대동 인근에서 거래 원합니다. 옷장 필요하신 분 연락 주세요.,가구/인테리어,24000,낙성대동,37.47868047157426,126.95667428323667,2026-05-13 13:31:48,141,88,9
579,맨투맨 저렴하게 내놓습니다,상도동에서 거래 가능한 맨투맨입니다. 상태 좋고 빠른 거래 원합니다.,의류,24000,상도동,37.495678173818646,126.9339305518165,2026-06-05 00:57:48,451,5,12
580,수건 세트 판매합니다,흑석동에서 거래 가능한 수건 세트입니다. 상태 좋고 빠른 거래 원합니다.,생활용품,67000,흑석동,37.50476503598857,126.95983793556691,2026-06-04 14:26:48,693,1,48
581,레고 세트 급처합니다,낙성대동 인근에서 거래 원합니다. 레고 세트 필요하신 분 연락 주세요.,게임/취미,34000,낙성대동,37.47527836541773,126.95520557336026,2026-06-03 11:51:48,774,35,37
582,화장품 정리함 저렴하게 내놓습니다,화장품 정리함 상태 양호합니다. 봉천동 근처에서 시간 맞춰 거래 가능합니다.,생활용품,6000,봉천동,37.48661660291508,126.94197126489016,2026-05-20 10:00:48,206,36,10
583,공기청정기 이사 정리합니다,공기청정기 상태 양호합니다. 사당동 근처에서 시간 맞춰 거래 가능합니다.,생활가전,104000,사당동,37.47584091847347,126.98174251002875,2026-05-21 19:39:48,195,45,24
584,카시트 사용감 적어요,집 정리하면서 카시트 내놓습니다. 봉천동에서 직거래 가능합니다.,유아용품,61000,봉천동,37.48048271259942,126.94382136572305,2026-05-20 12:14:48,790,46,45
585,무선청소기 이사 정리합니다,집 정리하면서 무선청소기 내놓습니다. 봉천동에서 직거래 가능합니다.,생활가전,155000,봉천동,37.479858734297295,126.94067282220502,2026-05-21 20:58:48,329,87,28
586,아기 식탁의자 저렴하게 내놓습니다,흑석동 인근에서 거래 원합니다. 아기 식탁의자 필요하신 분 연락 주세요.,유아용품,96000,흑석동,37.50818058350404,126.96518548263285,2026-06-04 19:14:48,698,13,25
587,캡슐 커피머신 상태 좋아요,집 정리하면서 캡슐 커피머신 내놓습니다. 상도동에서 직거래 가능합니다.,생활가전,365000,상도동,37.498237099934755,126.92799086385507,2026-05-18 12:58:48,957,21,4
588,볼캡 필요하신 분 가져가세요,볼캡 판매합니다. 봉천동 근처 직거래 가능하고 사용감은 적은 편입니다.,의류,219000,봉천동,37.485259721641384,126.94253649970538,2026-05-22 17:14:48,295,97,45
589,젖병 소독기 이사 정리합니다,집 정리하면서 젖병 소독기 내놓습니다. 상도동에서 직거래 가능합니다.,유아용품,266000,상도동,37.49710689860354,126.93097273782125,2026-05-28 11:56:48,475,13,7
590,컴퓨터 책상 저렴하게 내놓습니다,신림동에서 거래 가능한 컴퓨터 책상입니다. 상태 좋고 빠른 거래 원합니다.,가구/인테리어,265000,신림동,37.482469558858334,126.92702752611206,2026-05-15 16:34:48,401,77,43
591,Xbox 컨트롤러 저렴하게 내놓습니다,집 정리하면서 Xbox 컨트롤러 내놓습니다. 흑석동에서 직거래 가능합니다.,게임/취미,211000,흑석동,37.5092243811476,126.96669481597391,2026-05-26 19:14:48,512,64,16
592,베개 판매합니다,집 정리하면서 베개 내놓습니다. 신림동에서 직거래 가능합니다.,생활용품,33000,신림동,37.48379656238824,126.92432859796114,2026-05-24 02:25:48,883,48,28
593,도시락통 상태 좋아요,집 정리하면서 도시락통 내놓습니다. 흑석동에서 직거래 가능합니다.,생활용품,37000,흑석동,37.509488552236185,126.96350553711802,2026-05-26 18:21:48,509,97,7
594,베개 이사 정리합니다,베개 상태 양호합니다. 흑석동 근처에서 시간 맞춰 거래 가능합니다.,생활용품,43000,흑석동,37.51350870758428,126.96476939676378,2026-05-20 15:20:48,279,63,37
595,캠핑 테이블 사용감 적어요,신림동에서 거래 가능한 캠핑 테이블입니다. 상태 좋고 빠른 거래 원합니다.,스포츠/레저,307000,신림동,37.485039669780946,126.93165194020357,2026-06-04 11:52:48,385,44,47
596,낚시대 저렴하게 내놓습니다,상도동 인근에서 거래 원합니다. 낚시대 필요하신 분 연락 주세요.,스포츠/레저,187000,상도동,37.49694622088433,126.92912099528257,2026-05-23 05:42:48,687,31,15
597,전기포트 거의 새상품입니다,봉천동 인근에서 거래 원합니다. 전기포트 필요하신 분 연락 주세요.,생활가전,96000,봉천동,37.48623368521798,126.9422804940488,2026-06-04 23:25:48,48,58,42
598,분유포트 판매합니다,분유포트 상태 양호합니다. 흑석동 근처에서 시간 맞춰 거래 가능합니다.,유아용품,16000,흑석동,37.50477725673082,126.96348358617574,2026-05-26 04:09:48,409,41,36
599,원피스 이사 정리합니다,원피스 판매합니다. 사당동 근처 직거래 가능하고 사용감은 적은 편입니다.,의류,162000,사당동,37.48007334094152,126.98447149608697,2026-05-27 05:18:48,216,63,40
600,욕실 선반 거의 새상품입니다,대학동에서 거래 가능한 욕실 선반입니다. 상태 좋고 빠른 거래 원합니다.,생활용품,79000,대학동,37.47517941063433,126.9389770684305,2026-05-18 03:54:48,241,79,47
601,Xbox 컨트롤러 사용감 적어요,대학동에서 거래 가능한 Xbox 컨트롤러입니다. 상태 좋고 빠른 거래 원합니다.,게임/취미,585000,대학동,37.47355651749347,126.93831536813556,2026-05-11 00:15:48,447,26,22
602,소설책 세트 거의 새상품입니다,소설책 세트 상태 양호합니다. 상도동 근처에서 시간 맞춰 거래 가능합니다.,도서,43000,상도동,37.49913228605327,126.93363442214932,2026-05-30 03:20:48,267,79,32
603,컴퓨터 책상 상태 좋아요,컴퓨터 책상 판매합니다. 흑석동 근처 직거래 가능하고 사용감은 적은 편입니다.,가구/인테리어,348000,흑석동,37.511889334787014,126.96712774648138,2026-05-05 17:16:48,284,81,34
604,아기띠 판매합니다,청룡동 인근에서 거래 원합니다. 아기띠 필요하신 분 연락 주세요.,유아용품,241000,청룡동,37.47920275674791,126.95205388784186,2026-06-01 09:36:48,774,87,48
605,아령 급처합니다,상도동 인근에서 거래 원합니다. 아령 필요하신 분 연락 주세요.,스포츠/레저,426000,상도동,37.496961298308214,126.92838483422351,2026-05-26 20:35:48,272,87,38
606,싱글 매트리스 판매합니다,청룡동 인근에서 거래 원합니다. 싱글 매트리스 필요하신 분 연락 주세요.,가구/인테리어,247000,청룡동,37.47821990508731,126.95042711963477,2026-05-20 23:18:48,442,82,2
607,애플워치 거의 새상품입니다,낙성대동에서 거래 가능한 애플워치입니다. 상태 좋고 빠른 거래 원합니다.,디지털기기,759000,낙성대동,37.47781599740222,126.96227171779749,2026-05-21 16:42:48,890,10,20
608,아기띠 사용감 적어요,집 정리하면서 아기띠 내놓습니다. 봉천동에서 직거래 가능합니다.,유아용품,375000,봉천동,37.48260248528517,126.93780642613783,2026-05-10 12:30:48,124,73,47
609,캘리그라피 세트 거의 새상품입니다,흑석동에서 거래 가능한 캘리그라피 세트입니다. 상태 좋고 빠른 거래 원합니다.,게임/취미,248000,흑석동,37.51212334165158,126.9659723635368,2026-05-17 12:56:48,836,40,21
610,반팔 티셔츠 급처합니다,낙성대동에서 거래 가능한 반팔 티셔츠입니다. 상태 좋고 빠른 거래 원합니다.,의류,49000,낙성대동,37.47235925402718,126.95893469970336,2026-05-30 08:17:48,428,32,37
611,무선청소기 필요하신 분 가져가세요,무선청소기 판매합니다. 흑석동 근처 직거래 가능하고 사용감은 적은 편입니다.,생활가전,152000,흑석동,37.51201365366192,126.95881074210446,2026-05-08 12:22:48,496,91,23
612,플스5 게임 타이틀 판매합니다,청룡동 인근에서 거래 원합니다. 플스5 게임 타이틀 필요하신 분 연락 주세요.,게임/취미,570000,청룡동,37.48523157098683,126.95455248338595,2026-05-24 07:05:48,991,89,23
613,화장품 정리함 이사 정리합니다,상도동에서 거래 가능한 화장품 정리함입니다. 상태 좋고 빠른 거래 원합니다.,생활용품,103000,상도동,37.497574229023634,126.93459416737335,2026-05-07 08:26:48,102,96,15
614,옷장 사용감 적어요,상도동에서 거래 가능한 옷장입니다. 상태 좋고 빠른 거래 원합니다.,가구/인테리어,150000,상도동,37.50196941966511,126.9352649721981,2026-05-09 13:53:48,808,62,30
615,자전거 헬멧 저렴하게 내놓습니다,낙성대동 인근에서 거래 원합니다. 자전거 헬멧 필요하신 분 연락 주세요.,스포츠/레저,264000,낙성대동,37.47917785520604,126.95813261753136,2026-06-03 05:19:48,626,93,35
616,와이파이 공유기 판매합니다,집 정리하면서 와이파이 공유기 내놓습니다. 낙성대동에서 직거래 가능합니다.,디지털기기,830000,낙성대동,37.47485547537757,126.95935809345262,2026-05-16 12:45:48,420,25,40
617,토스터기 급처합니다,토스터기 상태 양호합니다. 낙성대동 근처에서 시간 맞춰 거래 가능합니다.,생활가전,361000,낙성대동,37.47440679879587,126.96047466871687,2026-05-23 06:17:48,499,94,8
618,캠핑 테이블 급처합니다,집 정리하면서 캠핑 테이블 내놓습니다. 봉천동에서 직거래 가능합니다.,스포츠/레저,193000,봉천동,37.47780734637589,126.93682970094703,2026-05-31 03:49:48,396,73,14
619,화장품 정리함 저렴하게 내놓습니다,화장품 정리함 판매합니다. 흑석동 근처 직거래 가능하고 사용감은 적은 편입니다.,생활용품,70000,흑석동,37.509803927309825,126.96009251200923,2026-05-14 11:42:48,420,79,27
620,실내 자전거 저렴하게 내놓습니다,실내 자전거 상태 양호합니다. 신림동 근처에서 시간 맞춰 거래 가능합니다.,스포츠/레저,227000,신림동,37.481444839497925,126.92603145363857,2026-05-12 01:53:48,699,63,7
621,토익 교재 이사 정리합니다,토익 교재 판매합니다. 상도동 근처 직거래 가능하고 사용감은 적은 편입니다.,도서,58000,상도동,37.50137188651185,126.93018330991121,2026-05-09 10:07:48,230,36,46
622,놀이매트 상태 좋아요,신림동 인근에서 거래 원합니다. 놀이매트 필요하신 분 연락 주세요.,유아용품,139000,신림동,37.48502903077336,126.93047235568301,2026-05-28 21:17:48,939,31,23
623,전자레인지 이사 정리합니다,낙성대동 인근에서 거래 원합니다. 전자레인지 필요하신 분 연락 주세요.,생활가전,364000,낙성대동,37.476032909510735,126.95957195940139,2026-05-23 19:32:48,740,49,45
624,캡슐 커피머신 판매합니다,신림동 인근에서 거래 원합니다. 캡슐 커피머신 필요하신 분 연락 주세요.,생활가전,130000,신림동,37.48629565965446,126.93209852950615,2026-05-21 05:07:48,971,85,38
625,애플워치 필요하신 분 가져가세요,집 정리하면서 애플워치 내놓습니다. 대학동에서 직거래 가능합니다.,디지털기기,707000,대학동,37.467393722231705,126.93349866498588,2026-05-25 11:48:48,582,5,37
626,스크래쳐 사용감 적어요,스크래쳐 판매합니다. 흑석동 근처 직거래 가능하고 사용감은 적은 편입니다.,반려동물용품,48000,흑석동,37.504968420561646,126.95904162161489,2026-05-25 18:12:48,453,18,16
627,협탁 거의 새상품입니다,집 정리하면서 협탁 내놓습니다. 사당동에서 직거래 가능합니다.,가구/인테리어,154000,사당동,37.47676972685702,126.98095775368606,2026-05-08 08:06:48,859,97,16
628,스탠드 조명 이사 정리합니다,스탠드 조명 상태 양호합니다. 낙성대동 근처에서 시간 맞춰 거래 가능합니다.,가구/인테리어,446000,낙성대동,37.47368919955109,126.95414567167386,2026-05-06 19:05:48,827,56,3
629,사무용 의자 이사 정리합니다,사무용 의자 판매합니다. 대학동 근처 직거래 가능하고 사용감은 적은 편입니다.,가구/인테리어,371000,대학동,37.470015196877455,126.94168818583705,2026-05-22 03:38:48,926,63,2
630,담요 이사 정리합니다,흑석동에서 거래 가능한 담요입니다. 상태 좋고 빠른 거래 원합니다.,생활용품,40000,흑석동,37.512149536595366,126.96609936651504,2026-06-02 05:40:48,218,36,11
631,에세이 급처합니다,에세이 상태 양호합니다. 신림동 근처에서 시간 맞춰 거래 가능합니다.,도서,76000,신림동,37.484181107762225,126.92494305223877,2026-05-31 02:47:48,88,31,49
632,요가매트 거의 새상품입니다,집 정리하면서 요가매트 내놓습니다. 봉천동에서 직거래 가능합니다.,스포츠/레저,196000,봉천동,37.47841063236745,126.94490699225572,2026-05-18 12:52:48,341,19,1
633,강아지 장난감 거의 새상품입니다,신림동 인근에서 거래 원합니다. 강아지 장난감 필요하신 분 연락 주세요.,반려동물용품,25000,신림동,37.48826878366749,126.93197033463188,2026-05-15 21:17:48,342,93,46
634,싱글 매트리스 판매합니다,대학동 인근에서 거래 원합니다. 싱글 매트리스 필요하신 분 연락 주세요.,가구/인테리어,418000,대학동,37.46652551010838,126.93435163901881,2026-06-03 17:41:48,570,77,24
635,바람막이 저렴하게 내놓습니다,바람막이 판매합니다. 신림동 근처 직거래 가능하고 사용감은 적은 편입니다.,의류,46000,신림동,37.48074134661858,126.92698546660624,2026-05-24 04:27:48,672,96,41
636,아기 욕조 거의 새상품입니다,낙성대동 인근에서 거래 원합니다. 아기 욕조 필요하신 분 연락 주세요.,유아용품,345000,낙성대동,37.48065413038642,126.9583643968663,2026-06-02 05:13:48,214,62,28
637,우쿨렐레 저렴하게 내놓습니다,상도동 인근에서 거래 원합니다. 우쿨렐레 필요하신 분 연락 주세요.,게임/취미,195000,상도동,37.498017448473966,126.93063524875615,2026-05-22 20:18:48,105,5,32
638,맨투맨 이사 정리합니다,봉천동 인근에서 거래 원합니다. 맨투맨 필요하신 분 연락 주세요.,의류,124000,봉천동,37.47908606538655,126.93787789748343,2026-05-23 13:47:48,830,61,19
639,코딩 테스트 책 급처합니다,상도동 인근에서 거래 원합니다. 코딩 테스트 책 필요하신 분 연락 주세요.,도서,75000,상도동,37.49567632171442,126.93024913521208,2026-06-03 23:41:48,949,5,32
640,전기히터 거의 새상품입니다,사당동 인근에서 거래 원합니다. 전기히터 필요하신 분 연락 주세요.,생활가전,309000,사당동,37.476228789438274,126.98446177092659,2026-06-03 00:44:48,126,94,42
641,유모차 저렴하게 내놓습니다,상도동 인근에서 거래 원합니다. 유모차 필요하신 분 연락 주세요.,유아용품,165000,상도동,37.50083810394167,126.92865074389735,2026-05-17 17:16:48,785,85,28
642,싱글 매트리스 상태 좋아요,싱글 매트리스 상태 양호합니다. 봉천동 근처에서 시간 맞춰 거래 가능합니다.,가구/인테리어,142000,봉천동,37.47765847069583,126.93776678260366,2026-05-08 19:39:48,454,68,1
643,협탁 이사 정리합니다,협탁 상태 양호합니다. 상도동 근처에서 시간 맞춰 거래 가능합니다.,가구/인테리어,381000,상도동,37.50150662292196,126.935631416104,2026-05-21 07:06:48,842,78,23
644,놀이매트 거의 새상품입니다,놀이매트 판매합니다. 봉천동 근처 직거래 가능하고 사용감은 적은 편입니다.,유아용품,74000,봉천동,37.4873052036366,126.94519012030264,2026-06-05 10:38:48,845,2,44
645,운동화 상태 좋아요,집 정리하면서 운동화 내놓습니다. 청룡동에서 직거래 가능합니다.,의류,220000,청룡동,37.48083425555439,126.95243989087506,2026-05-15 23:33:48,98,38,49
646,갤럭시 S22 상태 좋아요,집 정리하면서 갤럭시 S22 내놓습니다. 낙성대동에서 직거래 가능합니다.,디지털기기,516000,낙성대동,37.47381338420024,126.95929430461746,2026-05-21 15:50:48,470,74,15
647,유모차 사용감 적어요,신림동에서 거래 가능한 유모차입니다. 상태 좋고 빠른 거래 원합니다.,유아용품,327000,신림동,37.484986612674284,126.931310785469,2026-05-08 18:18:48,435,63,47
648,파이썬 입문서 이사 정리합니다,집 정리하면서 파이썬 입문서 내놓습니다. 상도동에서 직거래 가능합니다.,도서,68000,상도동,37.496919057860545,126.92660704682233,2026-05-17 17:06:48,967,86,31
649,무선 마우스 사용감 적어요,봉천동 인근에서 거래 원합니다. 무선 마우스 필요하신 분 연락 주세요.,디지털기기,683000,봉천동,37.48106764113369,126.94357514440388,2026-05-23 01:38:48,516,79,41
650,아이패드 미니 거의 새상품입니다,집 정리하면서 아이패드 미니 내놓습니다. 청룡동에서 직거래 가능합니다.,디지털기기,372000,청룡동,37.47959152998639,126.95372100132803,2026-05-22 09:13:48,234,75,43
651,고양이 화장실 거의 새상품입니다,집 정리하면서 고양이 화장실 내놓습니다. 상도동에서 직거래 가능합니다.,반려동물용품,187000,상도동,37.49667208590824,126.93290697548905,2026-05-11 00:54:48,874,20,39
652,전기장판 상태 좋아요,전기장판 판매합니다. 낙성대동 근처 직거래 가능하고 사용감은 적은 편입니다.,생활가전,90000,낙성대동,37.47483651893397,126.95569432941355,2026-05-17 01:39:48,822,53,31
653,아이폰 13 사용감 적어요,대학동 인근에서 거래 원합니다. 아이폰 13 필요하신 분 연락 주세요.,디지털기기,713000,대학동,37.473668155427546,126.93517734754612,2026-05-31 10:53:48,890,64,2
654,스팀다리미 급처합니다,스팀다리미 상태 양호합니다. 봉천동 근처에서 시간 맞춰 거래 가능합니다.,생활가전,124000,봉천동,37.47806676358358,126.94537713647163,2026-05-21 08:24:48,813,45,49
655,머신러닝 입문서 상태 좋아요,봉천동에서 거래 가능한 머신러닝 입문서입니다. 상태 좋고 빠른 거래 원합니다.,도서,59000,봉천동,37.48541652395506,126.94269655848012,2026-05-11 01:52:48,783,14,6
656,전기밥솥 판매합니다,전기밥솥 판매합니다. 봉천동 근처 직거래 가능하고 사용감은 적은 편입니다.,생활가전,332000,봉천동,37.48052122987718,126.94101517910077,2026-06-02 09:47:48,380,20,46
657,담요 저렴하게 내놓습니다,낙성대동 인근에서 거래 원합니다. 담요 필요하신 분 연락 주세요.,생활용품,88000,낙성대동,37.48149636666892,126.96129219299921,2026-05-10 12:38:48,878,25,28
658,갤럭시탭 이사 정리합니다,사당동 인근에서 거래 원합니다. 갤럭시탭 필요하신 분 연락 주세요.,디지털기기,537000,사당동,37.47575008607213,126.98289440401979,2026-05-31 14:28:48,391,91,48
659,맨투맨 필요하신 분 가져가세요,맨투맨 판매합니다. 청룡동 근처 직거래 가능하고 사용감은 적은 편입니다.,의류,210000,청룡동,37.48414607346373,126.95131774369655,2026-05-23 02:47:48,429,58,33
660,게이밍 마우스 상태 좋아요,게이밍 마우스 상태 양호합니다. 신림동 근처에서 시간 맞춰 거래 가능합니다.,디지털기기,91000,신림동,37.48354072278898,126.92793266266281,2026-06-03 06:25:48,421,98,10
661,USB 허브 상태 좋아요,USB 허브 상태 양호합니다. 신림동 근처에서 시간 맞춰 거래 가능합니다.,디지털기기,322000,신림동,37.487935463641904,126.93121551043859,2026-05-23 03:49:48,707,89,35
662,침낭 판매합니다,침낭 상태 양호합니다. 대학동 근처에서 시간 맞춰 거래 가능합니다.,스포츠/레저,317000,대학동,37.46765133571383,126.93724425291005,2026-05-07 12:01:48,423,57,41
663,디지털 피아노 사용감 적어요,디지털 피아노 판매합니다. 상도동 근처 직거래 가능하고 사용감은 적은 편입니다.,게임/취미,313000,상도동,37.501788805396856,126.93479875616178,2026-06-03 15:11:48,352,49,46
664,베개 거의 새상품입니다,청룡동에서 거래 가능한 베개입니다. 상태 좋고 빠른 거래 원합니다.,생활용품,133000,청룡동,37.477800273402295,126.94797891225295,2026-05-19 07:12:48,358,96,40
665,수건 세트 거의 새상품입니다,청룡동 인근에서 거래 원합니다. 수건 세트 필요하신 분 연락 주세요.,생활용품,111000,청룡동,37.48246989532318,126.95124473345903,2026-05-20 12:59:48,71,47,16
666,와이파이 공유기 저렴하게 내놓습니다,흑석동 인근에서 거래 원합니다. 와이파이 공유기 필요하신 분 연락 주세요.,디지털기기,606000,흑석동,37.51369000078898,126.9642559722658,2026-05-13 16:16:48,357,30,47
667,화장품 정리함 사용감 적어요,대학동 인근에서 거래 원합니다. 화장품 정리함 필요하신 분 연락 주세요.,생활용품,149000,대학동,37.46807633331308,126.93507846963081,2026-05-15 12:00:48,396,66,47
668,레고 세트 사용감 적어요,흑석동에서 거래 가능한 레고 세트입니다. 상태 좋고 빠른 거래 원합니다.,게임/취미,155000,흑석동,37.50442193672544,126.9674850929685,2026-05-14 02:52:48,431,10,5
669,자동 급식기 이사 정리합니다,봉천동 인근에서 거래 원합니다. 자동 급식기 필요하신 분 연락 주세요.,반려동물용품,272000,봉천동,37.48632014792738,126.94244303777656,2026-05-23 22:10:48,541,99,25
670,블록 장난감 이사 정리합니다,블록 장난감 판매합니다. 상도동 근처 직거래 가능하고 사용감은 적은 편입니다.,유아용품,78000,상도동,37.50428031806533,126.93113185485178,2026-05-20 12:14:48,738,58,8
671,수납 박스 급처합니다,집 정리하면서 수납 박스 내놓습니다. 흑석동에서 직거래 가능합니다.,생활용품,11000,흑석동,37.51232317798202,126.9597033616305,2026-05-13 11:10:48,388,15,38
672,골프채 거의 새상품입니다,골프채 상태 양호합니다. 신림동 근처에서 시간 맞춰 거래 가능합니다.,스포츠/레저,83000,신림동,37.48405925540536,126.9319120370107,2026-06-02 05:26:48,393,38,18
673,수납장 필요하신 분 가져가세요,신림동 인근에서 거래 원합니다. 수납장 필요하신 분 연락 주세요.,가구/인테리어,465000,신림동,37.479220857536966,126.92947537299608,2026-05-27 10:34:48,848,94,31
674,에어프라이어 필요하신 분 가져가세요,에어프라이어 상태 양호합니다. 흑석동 근처에서 시간 맞춰 거래 가능합니다.,생활가전,168000,흑석동,37.50855227548439,126.9658003349538,2026-05-18 01:48:48,355,100,24
675,게임 패드 상태 좋아요,집 정리하면서 게임 패드 내놓습니다. 흑석동에서 직거래 가능합니다.,게임/취미,464000,흑석동,37.51003589474035,126.96247235121673,2026-05-31 17:25:48,101,79,42
676,젖병 소독기 판매합니다,흑석동 인근에서 거래 원합니다. 젖병 소독기 필요하신 분 연락 주세요.,유아용품,335000,흑석동,37.51176158781436,126.96567398849047,2026-06-03 11:00:48,35,73,40
677,수납 박스 저렴하게 내놓습니다,수납 박스 상태 양호합니다. 청룡동 근처에서 시간 맞춰 거래 가능합니다.,생활용품,141000,청룡동,37.480958356921576,126.95666864280243,2026-05-18 15:09:48,544,24,48
678,전기밥솥 상태 좋아요,신림동 인근에서 거래 원합니다. 전기밥솥 필요하신 분 연락 주세요.,생활가전,115000,신림동,37.480046479446216,126.92933543866924,2026-05-28 17:52:48,918,74,28
679,낚시대 판매합니다,흑석동에서 거래 가능한 낚시대입니다. 상태 좋고 빠른 거래 원합니다.,스포츠/레저,179000,흑석동,37.50762010983357,126.95951025085111,2026-05-23 11:19:48,34,67,20
680,전기밥솥 상태 좋아요,전기밥솥 판매합니다. 대학동 근처 직거래 가능하고 사용감은 적은 편입니다.,생활가전,103000,대학동,37.46729191047988,126.93794475428768,2026-05-28 14:36:48,324,52,43
681,실내 자전거 판매합니다,신림동 인근에서 거래 원합니다. 실내 자전거 필요하신 분 연락 주세요.,스포츠/레저,204000,신림동,37.48295513158303,126.93227741398658,2026-06-02 06:36:48,432,41,16
682,에어프라이어 급처합니다,에어프라이어 상태 양호합니다. 청룡동 근처에서 시간 맞춰 거래 가능합니다.,생활가전,310000,청룡동,37.48569357055985,126.95039287527058,2026-05-29 01:13:48,780,64,24
683,배드민턴 라켓 필요하신 분 가져가세요,집 정리하면서 배드민턴 라켓 내놓습니다. 봉천동에서 직거래 가능합니다.,스포츠/레저,19000,봉천동,37.483140752631684,126.94246172697507,2026-05-22 20:31:48,945,2,17
684,가습기 상태 좋아요,가습기 상태 양호합니다. 대학동 근처에서 시간 맞춰 거래 가능합니다.,생활가전,218000,대학동,37.473428815875046,126.93322367030481,2026-05-22 13:51:48,661,64,13
685,청소도구 세트 급처합니다,청소도구 세트 상태 양호합니다. 상도동 근처에서 시간 맞춰 거래 가능합니다.,생활용품,118000,상도동,37.501130588490675,126.92767381674055,2026-06-04 15:53:48,485,79,18
686,기계식 키보드 거의 새상품입니다,집 정리하면서 기계식 키보드 내놓습니다. 대학동에서 직거래 가능합니다.,디지털기기,379000,대학동,37.466054847303134,126.93919182945595,2026-05-09 20:32:48,609,65,18
687,플스4 게임 타이틀 거의 새상품입니다,집 정리하면서 플스4 게임 타이틀 내놓습니다. 봉천동에서 직거래 가능합니다.,게임/취미,130000,봉천동,37.47970850176293,126.94164820249657,2026-05-10 11:59:48,579,35,27
688,텐트 거의 새상품입니다,흑석동 인근에서 거래 원합니다. 텐트 필요하신 분 연락 주세요.,스포츠/레저,130000,흑석동,37.507084572438586,126.96774018241256,2026-05-15 06:24:48,225,58,38
689,컴퓨터 책상 이사 정리합니다,신림동에서 거래 가능한 컴퓨터 책상입니다. 상태 좋고 빠른 거래 원합니다.,가구/인테리어,354000,신림동,37.484089767152255,126.92792791081504,2026-05-31 03:10:48,926,89,45
690,전기포트 판매합니다,흑석동에서 거래 가능한 전기포트입니다. 상태 좋고 빠른 거래 원합니다.,생활가전,190000,흑석동,37.50557186636919,126.96627965844363,2026-05-10 03:53:48,625,45,24
691,갤럭시 S22 이사 정리합니다,갤럭시 S22 판매합니다. 사당동 근처 직거래 가능하고 사용감은 적은 편입니다.,디지털기기,475000,사당동,37.47840554352115,126.98369197777195,2026-06-05 08:58:48,30,97,17
692,블루종 자켓 거의 새상품입니다,블루종 자켓 판매합니다. 청룡동 근처 직거래 가능하고 사용감은 적은 편입니다.,의류,131000,청룡동,37.48326968006537,126.94979086321347,2026-05-06 05:43:48,297,63,45
693,바람막이 저렴하게 내놓습니다,바람막이 상태 양호합니다. 대학동 근처에서 시간 맞춰 거래 가능합니다.,의류,133000,대학동,37.47125707047821,126.9386238360139,2026-05-21 11:10:48,208,84,47
694,보드게임 저렴하게 내놓습니다,낙성대동에서 거래 가능한 보드게임입니다. 상태 좋고 빠른 거래 원합니다.,게임/취미,135000,낙성대동,37.479622527086306,126.95551851547717,2026-05-27 21:51:48,243,66,46
695,블루투스 스피커 거의 새상품입니다,흑석동에서 거래 가능한 블루투스 스피커입니다. 상태 좋고 빠른 거래 원합니다.,디지털기기,457000,흑석동,37.512243415537114,126.96266875895515,2026-05-15 19:04:48,63,41,27
696,미니 냉장고 이사 정리합니다,흑석동 인근에서 거래 원합니다. 미니 냉장고 필요하신 분 연락 주세요.,생활가전,274000,흑석동,37.506579330307126,126.96280062069091,2026-05-12 14:49:48,748,28,3
697,강아지 옷 판매합니다,강아지 옷 판매합니다. 상도동 근처 직거래 가능하고 사용감은 적은 편입니다.,반려동물용품,174000,상도동,37.50438095611107,126.93023820256872,2026-06-02 21:54:48,35,94,14
698,가습기 급처합니다,낙성대동 인근에서 거래 원합니다. 가습기 필요하신 분 연락 주세요.,생활가전,169000,낙성대동,37.47611948943496,126.95384023529832,2026-06-02 20:05:48,109,3,30
699,캠핑 의자 급처합니다,집 정리하면서 캠핑 의자 내놓습니다. 봉천동에서 직거래 가능합니다.,스포츠/레저,127000,봉천동,37.48554111119484,126.94603547577209,2026-05-06 05:52:48,65,42,33
700,디지털 피아노 저렴하게 내놓습니다,디지털 피아노 상태 양호합니다. 흑석동 근처에서 시간 맞춰 거래 가능합니다.,게임/취미,132000,흑석동,37.512700837365365,126.96553363667019,2026-06-03 14:47:48,44,48,20
701,사무용 의자 이사 정리합니다,신림동 인근에서 거래 원합니다. 사무용 의자 필요하신 분 연락 주세요.,가구/인테리어,322000,신림동,37.48479258051606,126.92694916770235,2026-05-16 03:41:48,114,86,3
702,아기 장난감 저렴하게 내놓습니다,아기 장난감 판매합니다. 상도동 근처 직거래 가능하고 사용감은 적은 편입니다.,유아용품,311000,상도동,37.499242090931176,126.93028105740845,2026-05-10 19:06:48,20,58,24
